OrganisationID,OrganisationCode,OrganisationType,SubType,OrganisationStatus,IsPimsManaged,OrganisationName,Address1,Address2,Address3,City,County,Postcode,Latitude,Longitude,ParentODSCode,ParentName,Phone,Email,Website,Fax
26,V00203,Dentists,UNKNOWN,Visible,TRUE,mydentist,,,,,,,,,,,,,,
27,V04490,Dentists,UNKNOWN,Visible,TRUE,mydentist,,,,,,,,,,,,,,
28,V08165,Dentists,UNKNOWN,Visible,TRUE,Darwenside Dental Practice,Union Street,Darwen,,Lancs,,BB3 0DA,53.69689178,-2.468516827,Q47,Lancashire Area Team,01254 703020,enquires@darwendental.co.uk,,01254 777251
60,V06985,Dentists,UNKNOWN,Visible,TRUE,Practice on The Green,138 High Street,,,Bushey,,WD23 3DJ,51.64445877,-0.36279124,Q58,Hertfordshire And The South Midlands Area Team,0208 950 9599,,,
61,V06940,Dentists,UNKNOWN,Visible,TRUE,Orthoclinic,171 Shenley Road,,,Borehamwood,Hertfordshire,WD6 1AH,51.6569519,-0.273992479,Q58,Hertfordshire And The South Midlands Area Team,0208 207 5800,info@orthoclinicuk.com,http://www.orthoclinicuk.com,
64,V10614,Dentists,UNKNOWN,Visible,TRUE,Broughton Dental Practice ,57-61 Tanfield Lane,Broughton,,Milton Keynes,,MK10 9NJ,52.04833221,-0.698632002,Q58,Hertfordshire And The South Midlands Area Team,01908 241000,,,
93,V08804,Dentists,UNKNOWN,Visible,TRUE,Sale Dental Spa,,77 Washway Road,,Sale,Cheshire,M33 7TQ,53.42158508,-2.329288483,Q46,Greater Manchester Area Team,0161 969 7432,,,
96,V09142,Dentists,UNKNOWN,Visible,TRUE,Central Dental Practice,,36 Victoria Place,,Carlisle,Cumbria,CA1 1EX,54.89561081,-2.930422068,Q49,Cumbria,,,,
123,V00319,Dentists,UNKNOWN,Visible,TRUE,Oasis Dental Care,39 Buckingham Road,Aylesbury,Bucks,Bucks,,HP19 9PT,51.82130432,-0.814727426,Q69,Thames Valley Area Team,01296 482950,aylesbury@oasisdentalcare.com,http://buckinghamroaddental.co.uk,
124,V00327,Dentists,UNKNOWN,Visible,FALSE,Mr & Mrs Cookson & Partners,1b Meadow Walk,Buckingham,Bucks,,,MK18 1RS,52.0006752,-0.985368073,Q69,Thames Valley Area Team,01280 812701,,,
125,5DP144__000001_HP202SQ,Dentists,UNKNOWN,Visible,TRUE,Brookside Dental Clinic,Station Way,Aylesbury,Bucks,Bucks,,HP20 2SQ,51.81540298,-0.817914248,Q69,Thames Valley Area Team,8442252411,,,
126,5DP161__000002_MK181NS,Dentists,UNKNOWN,Visible,TRUE,Bank Chambers Dental Practice Buckingham,11 Market Square,11 Market Square,Bucks,Buckingham,,MK18 1NS,52.00033188,-0.987473428,Q69,Thames Valley Area Team,01280 822210,,,
128,V00329,Dentists,UNKNOWN,Visible,TRUE,White House Dental Studio,34a The High Street,,Winslow,Bucks,,MK18 3HB,51.94306946,-0.881120503,Q69,Thames Valley Area Team,01296 712264,,,
131,V00313,Dentists,UNKNOWN,Visible,TRUE,Eastgate Dental Centre,Eastgate House,46 Wedgewood Street,Aylesbury,Bucks,,HP19 7HL,51.8176384,-0.839371026,Q69,Thames Valley Area Team,01296 433222,,,
132,V06597,Dentists,UNKNOWN,Visible,TRUE,Stonydelph Dental Practice,26 Ellerbeck,Above Spar shop,Stonydelph,Tamworth,Staffordshire,B77 4JA,52.61756134,-1.650877476,Q60,Shropshire And Staffordshire Area Team,01827 897857,,http://www.toothpick.com/practice/stonydelph-dental-practice-1?h,
134,V12844,Dentists,UNKNOWN,Visible,TRUE,mydentist,,,,,,,,,,,,,,
136,V08211,Dentists,UNKNOWN,Visible,TRUE,Myers & Campbell ,34-36 Doncaster Road,,,Scunthorpe,,DN15 7RQ,53.59093857,-0.658080935,Q50,North Yorkshire And Humber Area Team,01724 842054,,,
142,V16859,Dentists,UNKNOWN,Visible,TRUE,Dental Access Centre,,The Flying Scotsman Centre,St Sepulchre Gate West,Doncaster,South Yorkshire,DN1 3AP,53.52091217,-1.137739182,Q51,South Yorkshire And Bassetlaw Area Team,0,,,
152,V13795,Dentists,UNKNOWN,Visible,TRUE,Bulwell House Dental Practice,124 Main Street,Bulwell,,Nottingham,,NG6 8ET,53.00315094,-1.195361733,Q55,Derbyshire And Nottinghamshire Area Team,0115 9760997,,,
153,V14078,Dentists,UNKNOWN,Visible,TRUE,Bilborough Dental Practice,Bracebridge Drive,Bilborough,,Nottingham,,NG8 4PN,52.96397018,-1.231032252,Q55,Derbyshire And Nottinghamshire Area Team,0115 9293398,,http://www.rodericksdental.co.uk,
162,V08615,Dentists,UNKNOWN,Visible,TRUE,Smile Care Dental Clinic,72 Beaumont Leys Lane,Leicester,,Leics,,LE4 2BA,52.65688705,-1.137836576,Q59,Leicestershire And Lincolnshire Area Team,0116 2661422,,,
163,V08765,Dentists,UNKNOWN,Visible,TRUE,Maple Dental Clinic,440 East Park Road,Leicester,Leics,,,LE5 5HH,52.62738419,-1.108779788,Q59,Leicestershire And Lincolnshire Area Team,0116 273 3131,,http://www.mapledentalclinic.co.uk,
165,V06519,Dentists,UNKNOWN,Visible,FALSE,Armada Dental Surgery,14 Greenbank Avenue,,Plymouth,Devon,,PL4 8PT,50.37369919,-4.126426697,Q66,Devon,,,,
182,V12006,Dentists,UNKNOWN,Visible,TRUE,Excel Dental Centre,1a Cheadle Road,Cheadle,,Cheshire,,SK8 1HW,53.38609695,-2.209787607,Q46,Greater Manchester Area Team,0161 428 1104,,,
183,V12432,Dentists,UNKNOWN,Visible,TRUE,Dairyground Dental Practice,59a Dairyground Road,Bramhall,,Stockport,,SK7 2QW,53.36565781,-2.157075167,Q46,Greater Manchester Area Team,0161 439 3098,,,
240,V09574,Dentists,UNKNOWN,Visible,TRUE,Barnfield Dental Studio,,10a Barnfield Hill,,Exeter,Devon,EX1 1SR,50.72340012,-3.520382881,Q66,Devon,,,,
241,V07456,Dentists,UNKNOWN,Visible,FALSE,Ellison & Griffiths,83 King Street,Whalley,Clitheroe,Lancs,,BB7 9SW,53.822258,-2.406873703,Q47,Lancashire Area Team,01254 825425,,,
242,V15087,Dentists,UNKNOWN,Visible,TRUE,Ravat & Ray Dental Care,,The Fold Centre for Integrated Health & Wellbeing,2-8 Venice Avenue,Burnley,,BB11 5JX,53.78172684,-2.267742395,Q47,Lancashire Area Team,01282 644932,,,
243,V07552,Dentists,UNKNOWN,Visible,TRUE,mydentist,,,,,,,,,,,,,,
244,V07388,Dentists,UNKNOWN,Visible,TRUE,Reedyford Dental Centre,231-233 Leeds Road,,,Nelson,Lancashire,BB9 8EH,53.84194565,-2.205238581,Q47,Lancashire Area Team,01282 614352,reedyforddentalpatientaccess1@gmail.com,http://www.reedyforddental.com,01282 696839
245,V07122,Dentists,UNKNOWN,Visible,FALSE,The Terrace Dental Practice,61 Church Street,Padiham,Burnley,Lancashire,,BB12 8JH,53.80096054,-2.319365501,Q47,Lancashire Area Team,01282 775552,,,01282 775448
328,V09333,Dentists,UNKNOWN,Visible,FALSE,Gentle Dental Care,12 Chapter Street,,London,,,SW1P 4NR,51.49185562,-0.133143827,Q71,London Area Team,020 7834 1882,,,020 75812642
329,V03038,Dentists,UNKNOWN,Visible,TRUE,The Orthodontic Practice of Sarah Burns,116 Chaplin Road,Wembley,Middlesex,London,,HA0 4UZ,51.54972076,-0.306741774,Q71,London Area Team,020 8795 6066,,,
330,V03741,Dentists,UNKNOWN,Visible,TRUE,Porchester  Dental Practice,,11 Porchester Gardens,,London,,W2 4DB,51.51364136,-0.188460633,Q71,London Area Team,020 7727 3650,,,
336,V00664,Dentists,UNKNOWN,Visible,TRUE,Portelly Dental Surgery,108 St. Georges Road,,,London,,SE1 6EU,51.49652481,-0.105119206,Q71,London Area Team,020 7928 4474,info@theportellypractice.co.uk,http://www.theportellypractice.co.uk/,
337,V00695,Dentists,UNKNOWN,Visible,TRUE,Williams,82 Park Hall Road,London,London,,,SE21 8BW,51.43587494,-9.06E-02,Q71,London Area Team,020 8265 9797,,,
338,V00690,Dentists,UNKNOWN,Visible,TRUE,Norton,179 Denmark Hill,London,,,,SE5 8DX,51.46038437,-9.37E-02,Q71,London Area Team,020 7274 0861,,,
340,V11475,Dentists,UNKNOWN,Visible,TRUE,Talbot Dental Clinic - Owen,85-87 Borough High Street,Talbot Yard,,London,,SE1 1NH,51.50418854,-9.03E-02,Q71,London Area Team,020 7407 3929,,http://www.talbot-dental.co.uk,
341,V09401,Dentists,UNKNOWN,Visible,FALSE,Sheriff,3a Fellbridge House,Dog Kennel Hill,London,,,SE22 8BQ,51.46417999,-8.37E-02,Q71,London Area Team,020 7095 9818,,,
342,V00678,Dentists,UNKNOWN,Visible,TRUE,Hopkins,Half Moon Dental Centre,Half Moon Lane,Herne Hill,LONDON,,SE24 9JU,51.4531517,-0.100637741,Q71,London Area Team,020 7733 0011,,http://www.halfmoondental.com,
360,V11825,Dentists,UNKNOWN,Visible,TRUE,Union Street Dental Practice,Union Street,Union Street,,Hyde,,SK14 1NX,53.44997787,-2.075896025,Q46,Greater Manchester Area Team,0161 366 2420,,,
365,V03349,Dentists,UNKNOWN,Visible,TRUE,Edgerton Dental Clinic,80 New North Road,Edgerton,,Huddersfield,,HD1 5NE,53.65179062,-1.793130875,Q52,West Yorkshire Area Team,01484 530 343,,,
370,V07262,Dentists,UNKNOWN,Visible,TRUE,Euro Dental Care,368 Court Oak Road,Harborne,,Birmingham,West Midlands,B32 2DY,52.46035767,-1.981780171,Q54,Birmingham And The Black Country Area Team,0121 428 2999,reception@eurodentalcare.co.uk,http://www.eurodentalcare.co.uk,
392,5M156__000001_B153HE,Dentists,UNKNOWN,Visible,TRUE,Dental Practice,38 Harborne Road,Edgbaston,Birmingham,,,B15 3HE,52.46969604,-1.926779985,Q54,Birmingham And The Black Country Area Team,0121 454 3134,,http://www.edgbastondentalsurgery.co.uk,
434,V12974,Dentists,UNKNOWN,Visible,TRUE,Aldridge House Dental Practice,31 High Street,Aldridge,,Walsall,West Midlands,WS9 8LX,52.60500336,-1.917149425,Q54,Birmingham And The Black Country Area Team,01922 455897,aldridge@rodericksdental.co.uk,http://www.rodericksdental.co.uk/aldridge/index.html,
435,V13318,Dentists,UNKNOWN,Visible,TRUE,Wisdom Dental Care,77 Collingwood Drive,Pheasey Park,,Great Barr,,B43 7JW,52.55772781,-1.906146169,Q54,Birmingham And The Black Country Area Team,0121 360 9898,,,
436,V06945,Dentists,UNKNOWN,Visible,TRUE,Goodall Dental Practice,45 Goodall Street,Walsall,,Walsall,,WS1 1QJ,52.58327484,-1.978305936,Q54,Birmingham And The Black Country Area Team,01922 642621,info@goodalldentalpractice.co.uk,http://www.goodalldentalpractice.co.uk/,
576,5MK010__000001_TF75QZ,Dentists,UNKNOWN,Visible,TRUE,Woodside Dental Practice,Park Lane Centre,Park Lane,Woodside,Telford,Shropshire,TF7 5QZ,52.63813019,-2.467063904,Q60,Shropshire And Staffordshire Area Team,01952 683713,info@thesmileworks.com,,
663,V03033,Dentists,UNKNOWN,Visible,TRUE,mydentist,,,,,,,,,,,,,,
664,V00066,Dentists,UNKNOWN,Visible,TRUE,mydentist,,,,,,,,,,,,,,
670,V02396,Dentists,UNKNOWN,Visible,TRUE,Noble Dental Practice,9 Mill Street,,,Sutton Coldfield,,B72 1TJ,52.56462479,-1.822898269,Q54,Birmingham And The Black Country Area Team,0121 354 9215,,,
733,V13852,Dentists,UNKNOWN,Visible,TRUE,Aldridge Road Dental Practice ,352 Dyas Road,Great Barr,,Birmingham,,B44 8TB,52.54333115,-1.902151346,Q54,Birmingham And The Black Country Area Team,0121 325 0055,info@smiledentistbirmingham.co.uk,http://www.smiledentistbirmingham.co.uk,
735,V13853,Dentists,UNKNOWN,Visible,TRUE,Soho Road Dental Practice,78 Soho Road,Handsworth,,Birmingham,,B21 9BN,52.50215912,-1.927816391,Q54,Birmingham And The Black Country Area Team,0121 523 8231,info@smiledentistbirmingham.co.uk,http://www.smiledentistbirmingham.co.uk,
737,V04913,Dentists,UNKNOWN,Visible,TRUE,Coventry Road Dental Practice ,410 Coventry Road,Small Heath,,Birmingham,,B10 0UF,52.47134399,-1.861959696,Q54,Birmingham And The Black Country Area Team,0121 772 1607,,,
739,5MX15__000002_B202JU,Dentists,UNKNOWN,Visible,TRUE,My Dental Smile,51 Coopers Road,Handsworth Wood,Birmingham,,,B20 2JU,52.52151871,-1.923746586,Q54,Birmingham And The Black Country Area Team,0121 551 6061,,,
740,V05874,Dentists,UNKNOWN,Visible,TRUE,R Kumar Dental Spa,R Kumar Dental Spa,191 -193 Birchfield Rd,Perry Barr,Birmingham,West Midlands,B19 1LL,52.50748825,-1.902584314,Q54,Birmingham And The Black Country Area Team,0121 515 1594,forma86@gmail.com,,
759,V12300,Dentists,UNKNOWN,Visible,TRUE,Perry Park Dental,289 Walsall Road,Perry Barr,,Birmingham,,B42 1TY,52.52568436,-1.904342413,Q54,Birmingham And The Black Country Area Team,0121 356 6300,,,
782,V00058,Dentists,UNKNOWN,Visible,TRUE,mydentist,,,,,,,,,,,,,,
831,V10953,Dentists,UNKNOWN,Visible,TRUE,Thompson & Thomas,Fairlawns,621 Middlewood Road,Hillsborough,SHEFFIELD,South Yorkshire,S6 1TT,53.41892624,-1.515344143,Q51,South Yorkshire And Bassetlaw Area Team,0114 2313454,,,
848,5N5050__000002_S649LX,Dentists,UNKNOWN,Visible,FALSE,Genix Healthcare,14 Hartley Street,,Mexborough,South Yorkshire,,S64 9LX,53.49380493,-1.294588923,Q51,South Yorkshire And Bassetlaw Area Team,,,,
908,V05478,Dentists,UNKNOWN,Visible,TRUE,Chilwell dp,165 High Road,Chilwell,,Nottingham,,NG9 5BA,52.91894531,-1.227784395,Q55,Derbyshire And Nottinghamshire Area Team,0115 9678200,info@chilwelldp.co.uk,http://www.chilwelldp.co.uk,
919,V05484,Dentists,UNKNOWN,Visible,TRUE,Oradent Studio,13 Victoria Street,Eastwood,Nottingham,Nottinghamshire,,NG16 3AW,53.01841736,-1.307119489,Q55,Derbyshire And Nottinghamshire Area Team,01773 719993,,,
922,V01921,Dentists,UNKNOWN,Visible,FALSE,Compton Acres Dental Practice,Compton Acres,West Bridgford,Nottingham,Nottinghamshire,,NG2 7RS,52.91867828,-1.152710915,Q55,Derbyshire And Nottinghamshire Area Team,01159 455664,,,
1023,V12755,Dentists,UNKNOWN,Visible,TRUE,Oasis Dental Care Ltd,14 Campbell-Savours Way,Washington Square Shopping Centre,,Workington,,CA14 3DZ,54.64351654,-3.54587245,Q49,Cumbria,,,,
1024,V12752,Dentists,UNKNOWN,Visible,TRUE,Oasis Dental Care Ltd,,59a Stramongate,,Kendal,,LA9 4BH,54.32819748,-2.743990183,Q49,Cumbria,,,,
1026,V12657,Dentists,UNKNOWN,Visible,TRUE,Oasis Dental Care Ltd,Bridge Street,,,Maryport,,CA15 8AE,54.71460342,-3.502035379,Q49,Cumbria,,,,
1027,V12656,Dentists,UNKNOWN,Visible,TRUE,Oasis Dental Care Ltd,9 Market Place,,,Egremont,,CA22 2AE,54.48121262,-3.528304815,Q49,Cumbria,,,,
1028,V12753,Dentists,UNKNOWN,Visible,TRUE,Oasis Dental Care Ltd,Units 3 and 4,,,,,,,,,,,,,
1030,V13778,Dentists,UNKNOWN,Visible,TRUE,Oasis Dental Care Ltd,Unit 4,Packhorse Court,,Keswick,,CA12 5JB,54.6009407,-3.136288643,Q49,Cumbria,,,,
1048,5NE96__000001_CA13EB,Dentists,UNKNOWN,Visible,TRUE,Windmill Orthodontics,Unit 2,The Sidings,Portland Road,Carlisle,,CA2 7AF,54.89678574,-2.952435255,Q49,Cumbria,,,,
1049,V13923,Dentists,UNKNOWN,Visible,TRUE,Oasis Dental Care Ltd,Units 5 and 6,Furness House,,,,,,,,,,,,
1050,V13889,Dentists,UNKNOWN,Visible,TRUE,Oasis Dental Care Ltd,Gound Floor,,,,,,,,,,,,,
1051,V13924,Dentists,UNKNOWN,Visible,TRUE,Oasis Dental Care Ltd,Government Building,St Georges Road,,Millom,,LA18 5DN,54.2109375,-3.273587465,Q49,Cumbria,,,,
1080,V00303,Dentists,UNKNOWN,Visible,FALSE,Caro & Caro Dental Practice,5 Richmond Road,,St Annes,Lancashire,,FY8 1PE,53.75013351,-3.027830839,Q47,Lancashire Area Team,01253 714145,,,
1081,V00727,Dentists,UNKNOWN,Visible,TRUE,Albany Dental Care,Albany Road,Ansdell,,Lytham St Annes,,FY8 4GW,53.74862289,-3.000330687,Q47,Lancashire Area Team,01253 957280,,,
1082,V07773,Dentists,UNKNOWN,Visible,TRUE,Welcare Dental Centre,39 Kensington Road,,Morecambe,Lancashire,,LA4 5LU,54.07230377,-2.859905481,Q47,Lancashire Area Team,01524 422692,,,
1083,V03302,Dentists,UNKNOWN,Visible,FALSE,The Dental Surgery,6 New Street,,Lancaster,Lancashire,,LA1 1EG,54.04931641,-2.802108288,Q47,Lancashire Area Team,01524 32639,,,
1085,V07752,Dentists,UNKNOWN,Visible,FALSE,King & Associates,Council Buildings,46/48 Market Street,Carnforth,Lancashire,,LA5 9LB,54.12874985,-2.766731739,Q47,Lancashire Area Team,01524 733867,,,
1086,V03263,Dentists,UNKNOWN,Visible,TRUE,Hest Bank Dental Care,3 Marine Drive,Hest Bank,,Lancaster,,LA2 6DZ,54.09091187,-2.814331532,Q47,Lancashire Area Team,01524 825218,,,
1087,V03242,Dentists,UNKNOWN,Visible,TRUE,The Dental Surgery,31 Princes Crescent,Bare,Morecambe,Lancashire,,LA4 6BY,54.07817459,-2.839469433,Q47,Lancashire Area Team,01524 831150,,,
1195,V09836,Dentists,UNKNOWN,Visible,TRUE,Quest Dental Care,Quest Dental Care,Red Lion Street,,Burnley,Lancashire,BB11 2AE,53.78835297,-2.242542982,Q47,Lancashire Area Team,01282 833500,reception@questdentalcare.co.uk,http://www.questdentalcare.co.uk/,
1262,V13748,Dentists,UNKNOWN,Visible,TRUE,Clavell-Bate & Nephew Dental Surgeons,89 King Street,,Whalley,Lancashire,,BB7 9SW,53.822258,-2.406873703,Q47,Lancashire Area Team,01254 823221,,,
1369,V06415,Dentists,UNKNOWN,Visible,FALSE,The Larty Dental Clinic ,563 Barlow Moor Road,Chorlton,Manchester,,,M21 8AE,53.44171524,-2.276858807,Q46,Greater Manchester Area Team,0161 881 3465,,,0161 860 0787
1370,V10338,Dentists,UNKNOWN,Visible,FALSE,Chorlton Heath Centre Dental Clinic,1 Nicholas Road,Chorlton,Manchester,,,M21 9NJ,53.44378662,-2.279973745,Q46,Greater Manchester Area Team,0161 860 2912,,,
1373,V06189,Dentists,UNKNOWN,Visible,FALSE,City Centre Dental Practice - Mr Moss,3rd Floor,,,,,,,,,,,,,
1374,5NTLK__000002_M27HG,Dentists,UNKNOWN,Visible,TRUE,Bupa St Ann's Square Dental Centre (formerly Ultimate Smile Spa) ,14 St Ann's Square,City Centre,,Manchester,,M2 7HG,53.48218536,-2.246170998,Q46,Greater Manchester Area Team,0161 831 9670,dental-st-anns@bupa.com,http://www.bupa.co.uk/dental-centres/st-anns,0161 832 6129
1379,V13336,Dentists,UNKNOWN,Visible,TRUE,Whitby Dental care ,The Ropery,St. Hilda's Business Centre,,Whitby,,YO22 4ET,54.48263168,-0.60830754,Q50,North Yorkshire And Humber Area Team,,,,
1410,V12912,Dentists,UNKNOWN,Visible,TRUE,Genix Healthcare Limited,No: 6,Southgate,,Market Weighton,,YO43 3AG,53.86312103,-0.664730072,Q50,North Yorkshire And Humber Area Team,01430 879171,marketweighton@genixhealthcare.com,http://www.genixhealthcarecareers.com/,
1411,V13014,Dentists,UNKNOWN,Visible,TRUE,Portland Dental Practice,4 Hull Road,,,Withernsea,,HU19 2DZ,53.73129654,2.95E-02,Q50,North Yorkshire And Humber Area Team,01964 614949,,,
1505,V10607,Dentists,UNKNOWN,Visible,TRUE,Whole Tooth Dental Practice,1 Enterprise Court,Grovebury Road,Leighton Buzzard,Beds,Bedfordshire,LU7 4SW,51.91029358,-0.659185946,Q58,Hertfordshire And The South Midlands Area Team,01525 374100,mail@wholetooth.co.uk,http://www.wholetoothdental.com,
1506,V02850,Dentists,UNKNOWN,Visible,TRUE,The Tomlinson Avenue Orthodontic Centre,91 Tomlinson Avenue,,Luton,Beds,,LU4 0QL,51.89982605,-0.493801534,Q58,Hertfordshire And The South Midlands Area Team,01582 515346,jilpapatel@yahoo.co.uk,,
1552,V07937,Dentists,UNKNOWN,Visible,FALSE,Al-Tahan Mr B,432 Galley Hill,Warners End,Hemel Hempstead,Herts,,HP1 3RE,51.76160431,-0.496651977,Q58,Hertfordshire And The South Midlands Area Team,01442 231662,,,
1747,V05799,Dentists,UNKNOWN,Visible,TRUE,Brookside Dental Clinic,Brookside Dental clinic,94 St Marys Road,Market Harborough,Leics,Leicestershire,LE16 7DX,52.4779892,-0.914631605,Q59,Leicestershire And Lincolnshire Area Team,01858 462734,info@brooksidedentalclinic.co.uk,,
1748,V10451,Dentists,UNKNOWN,Visible,TRUE,ADP Melton Mowbray,ADP Melton Mowbray,8 Asfordby Road,,Melton Mowbray,Leicestershire,LE13 0HR,52.7669487,-0.892669618,Q59,Leicestershire And Lincolnshire Area Team,1664563876,meltonmowbray-pm@idhgroup.co.uk,http://idhgroup.co.uk/,
1749,V10452,Dentists,UNKNOWN,Visible,TRUE,ADP Oakham,ADP Oakham,The White House,17 Burley Road,Oakham,Leicestershire,LE15 6DH,52.67052078,-0.725376368,Q59,Leicestershire And Lincolnshire Area Team,1572770579,oakham-pm@idhgroup.co.uk,https://www.mydentist.co.uk,
1751,V11567,Dentists,UNKNOWN,Visible,FALSE,Orthodontics at Oakham Dental Studio,Knights Yard,Gaol Street,,Oakham,,LE15 6AQ,52.66928864,-0.730248094,Q59,Leicestershire And Lincolnshire Area Team,01572 771175,,,
1758,V13433,Dentists,UNKNOWN,Visible,TRUE,Syston Dental Care,1126 Melton Road,,,Syston,,LE7 2HA,52.69504929,-1.079333067,Q59,Leicestershire And Lincolnshire Area Team,0116 269 5111,,,
1827,V14059,Dentists,UNKNOWN,Visible,TRUE,The Owen Street Dental Practice,1 Owen Street,Tipton,,West Midlands,,DY4 8HB,52.52869034,-2.069398642,Q54,Birmingham And The Black Country Area Team,0121 522 2552,tipton@oasisdentalcare.com,http://owenstreetdental.co.uk,
1828,V11171,Dentists,UNKNOWN,Visible,TRUE,Oldbury Dental Centre,Oldbury Health Centre,Albert Street,,Oldbury,,B69 4DE,52.50375366,-2.013834238,Q54,Birmingham And The Black Country Area Team,0121 612 2691,,,0121 612 2690
1836,V17417,Dentists,UNKNOWN,Visible,FALSE,Salaried Dental Services - Dental Headquarters,1st Floor Primary Care Building,Sandwell General Hospital,Lyndon,West Bromwich,,B71 4HJ,52.52735901,-1.987869978,Q54,Birmingham And The Black Country Area Team,0121 507 2741,,,0121 507 2817
1842,V01462,Dentists,UNKNOWN,Visible,TRUE,Shiels & Steward Dental Practice,58 Shirley Road,Acocks Green,,Birmingham,,B27 7XH,52.44504547,-1.824142456,Q54,Birmingham And The Black Country Area Team,0121 708 1818,,,0121 706 0073
1843,V01438,Dentists,UNKNOWN,Visible,TRUE,Rees Dental Practice,3 Victoria Road,Acocks Green,,Birmingham,,B27 7XZ,52.44445419,-1.819628239,Q54,Birmingham And The Black Country Area Team,0121 706 1373,,,
1844,V01436,Dentists,UNKNOWN,Visible,TRUE,Rai Dental Surgery,109 Westley Road,Acocks Green,Birmingham,W Midlands,,B27 7UW,52.44584274,-1.828361869,Q54,Birmingham And The Black Country Area Team,0121 706 3496,m.rai@btclick.com,,0121 706 3496
1845,V01196,Dentists,UNKNOWN,Visible,TRUE,Dr Cottam Orthodontic Practice,20 Summer Road,Acocks Green,Birmingham,W Midlands,,B27 7UT,52.44487,-1.833794594,Q54,Birmingham And The Black Country Area Team,0121 708 2994,,,0121 707 1569
1846,V01474,Dentists,UNKNOWN,Visible,TRUE,Bhandal Dental Practice - Acocks Green,63 Westley Road,Acocks Green,,Birmingham,,B27 7UQ,52.44601822,-1.82608068,Q54,Birmingham And The Black Country Area Team,0121 707 8877,,http://www.bhandaldentalpractices.co.uk/?,0121 707 8282
1899,V11341,Dentists,UNKNOWN,Visible,TRUE,Oasis Dental Care Ltd,8 Mill Street,,,Sutton Coldfield,,B72 1TJ,52.56462479,-1.822898269,Q54,Birmingham And The Black Country Area Team,0121 321 2094,suttoncoldfield@oasisdentalcare.com,http://oasismillstreetdental.co.uk,0121 321 2086
1900,V04889,Dentists,UNKNOWN,Visible,TRUE,Mr F Mohamed,408 Green Lane,Small Heath,,Birmingham,,B9 5QJ,52.47491455,-1.847608924,Q54,Birmingham And The Black Country Area Team,0121 766 6082,,,
1901,V04874,Dentists,UNKNOWN,Visible,TRUE,Warwick Road Dental Surgery,576 Warwick Road,Tyseley,Birmingham,,,B11 2HR,52.45343018,-1.848963261,Q54,Birmingham And The Black Country Area Team,0121 706 2289,,,0121 604 2228
1902,V04895,Dentists,UNKNOWN,Visible,TRUE,Dental Surgery,2a Bowyer Road,Saltley,Birmingham,,,B8 1ET,52.48771286,-1.852188945,Q54,Birmingham And The Black Country Area Team,0121 327 0577,,,
1903,V04896,Dentists,UNKNOWN,Visible,TRUE,Park Dental Practice,628 Coventry Road,Small Heath,Birmingham,,,B10 0UT,52.46759415,-1.851608634,Q54,Birmingham And The Black Country Area Team,0121 772 1725,,,
1904,V04910,Dentists,UNKNOWN,Visible,TRUE,J W Taylor & Associates,488 Bordesley Green,Bordesley Green,,Birmingham,,B9 5PA,52.47863007,-1.841912866,Q54,Birmingham And The Black Country Area Team,0121 772 1148,,,0121 773 8294
1961,5PK/116459/0001__000001_WS73XJ,Dentists,UNKNOWN,Visible,TRUE,High Street Dental Practice,267 High Street,Chasetown,,Burntwood,,WS7 3XJ,52.6807785,-1.934238672,Q60,Shropshire And Staffordshire Area Team,01543 685897,,,
1962,V13182,Dentists,UNKNOWN,Visible,TRUE,Stop the Clock Dental Care Ltd,Eastern Avenue,,,Burton On Trent,,DE13 0AT,52.8274765,-1.620049953,Q60,Shropshire And Staffordshire Area Team,01283 547411,,,
1964,V13199,Dentists,UNKNOWN,Visible,TRUE,Tamworth House Dental Practice (Rodericks Ltd),,21 Church Street,,Tamworth,Staffordshire,B79 7BX,52.63398743,-1.695741415,Q60,Shropshire And Staffordshire Area Team,01827 64743,tamworthhouse@rodericksdental.co.uk,http://www.tamworthhousedental.co.uk,01827 64742
1965,V11986,Dentists,UNKNOWN,Visible,TRUE,Burton Dental Practice,High Street Dental practice,65 High Street,,Burton on Trent,Staffordshire,DE14 1LE,52.80513382,-1.628047109,Q60,Shropshire And Staffordshire Area Team,01283 545469,,,01283 543891
1966,V12136,Dentists,UNKNOWN,Visible,TRUE,Hill Street Dental Practice,Hill Street Health and Well Being Centre,Hill Street,Stapenhill,Burton On Trent,,DE15 9LD,52.79102707,-1.624875307,Q60,Shropshire And Staffordshire Area Team,01283 568776,hillstreet@rodericksdental.co.uk,,
1967,V13159,Dentists,UNKNOWN,Visible,TRUE,Brookhouse Dental Practice,Gnosall Health Centre,Brookhouse Road,Gnosall,Staffordshire,,ST20 0GP,52.79011154,-2.256522417,Q60,Shropshire And Staffordshire Area Team,01785 824765,,,
1975,V10536,Dentists,UNKNOWN,Visible,FALSE,Jacme Dental Practice,80 Upper St. John Street,Lichfield,Staffs,,,WS14 9DX,52.67814255,-1.825856805,Q60,Shropshire And Staffordshire Area Team,01543 268369,,,01543 268387
1998,V07329,Dentists,UNKNOWN,Visible,TRUE,Eachway Dental Practice,14 Eachway,,Birmingham,Rubery,,B45 9DQ,52.39030838,-2.018397331,Q53,Arden,,,,
2069,V11059,Dentists,UNKNOWN,Visible,TRUE,Falkner House Dental Practice,Mill Lane,Sawston,,Cambridge,,CB22 3HY,52.12250519,0.163598031,Q56,East Anglia Area Team,01223 839520,falkerhouse.ahg@gmail.com,http://www.antwerphouse.co.uk,
2074,V05757,Dentists,UNKNOWN,Visible,TRUE,Wisbech Community Dental Service,,1-4 Church Mews,,Wisbech,Cambridgeshire,PE13 1HL,52.66508865,0.162456557,Q56,East Anglia Area Team,0800 952 0870,,,01945 581391
2220,V11882,Dentists,UNKNOWN,Visible,TRUE,St Clements Dental Suite,London Road,West Thurrock,,Grays,,RM20 4AR,51.47657013,0.290698469,Q57,Essex Area Team,01708 895480,stclements@dentistryforyou.co.uk,http://www.dentistryforyou.co.uk,01708 895489
2221,V11872,Dentists,UNKNOWN,Visible,TRUE,Elite Dental Studio,14 Civic Square,Thurrock,Tilbury,Essex,,RM18 8AD,51.46208191,0.365441114,Q57,Essex Area Team,01375 852044,info@elitedentalstudio.co.uk,http://www.elitedentalstudio.co.uk,
2533,V12123,Dentists,UNKNOWN,Visible,TRUE,Tewkesbury House Dental Practice,23 Barton Street,Tewkesbury,,Gloucester,,GL20 5PR,51.99298477,-2.154417992,Q64,Bath,,,,
2542,V13635,Dentists,UNKNOWN,Visible,TRUE,Archway Dental Practice Ltd,Frome House,London Road,,Stroud,,GL5 2AF,51.74383163,-2.216105938,Q64,Bath,,,,
2544,V12125,Dentists,UNKNOWN,Visible,TRUE,Oasis Dental Care,1b Hylton Court,Newerne Street,,Lydney,,GL15 5RF,51.72657013,-2.529909372,Q64,Bath,,,,
2561,5QH20013__000001_GL503HJ,Dentists,UNKNOWN,Visible,TRUE,mydentist,,,,,,,,,,,,,,
2562,V10319,Dentists,UNKNOWN,Visible,TRUE,Tetbury Dental Practice,Tetbury Hospital,Malmesbury Road,,Tetbury,Gloucestershire,GL8 8XB,51.63522339,-2.154657364,Q64,Bath,,,,
2563,V12061,Dentists,UNKNOWN,Visible,TRUE,Chipping Manor Dental Practice ,56 Ashcroft Road,,Cirencester,Gloucestershire,,GL7 1QX,51.7144165,-1.97008872,Q64,Bath,,,,
2632,5QL_TAUT__000002_TA11SN,Dentists,UNKNOWN,Visible,TRUE,Canon Street Dental Centre - IDH,Canon Street Dental Centre,4 Canon Street,,Taunton,Somerset,TA1 1SN,51.01645279,-3.098986864,Q65,Bristol,,,,
2696,V12470,Dentists,UNKNOWN,Visible,TRUE,mydentist,,,,,,,,,,,,,,
2697,V01445,Dentists,UNKNOWN,Visible,TRUE,Bude Oasis - April Lodge Dental Practice,Stratton Road,,Bude,Cornwall,,EX23 9AF,50.8266716,-4.519877434,Q66,Devon,,,,
2698,V01087,Dentists,UNKNOWN,Visible,TRUE,Peninsula Dental School,Dental Education Facility,Knowledge Spa,Truro,Cornwall,,TR1 3HD,50.26493073,-5.093133926,Q66,Devon,,,,
2740,V10795,Dentists,UNKNOWN,Visible,TRUE,Penwith Dental Care (Oasis),Penwith House,High Street,,Penzance,,TR18 2SX,50.12007904,-5.53821373,Q66,Devon,,,,
2754,V12529,Dentists,UNKNOWN,Visible,TRUE,Taw Valley Dental Care,56 Fore Street,North Tawton,,Okehampton,,EX20 2DT,50.79999542,-3.90008235,Q66,Devon,,,,
2757,V10678,Dentists,UNKNOWN,Visible,TRUE,Salcombe Dental Practice,Hannaford's Landing,Island Street,,Salcombe,,TQ8 8FE,50.24003983,-3.768220425,Q66,Devon,,,,
2768,V13442,Dentists,UNKNOWN,Visible,TRUE,Den Dental Group Sidmouth,,1-2 Mill Street,,Sidmouth,,EX10 8DF,50.68106461,-3.236470699,Q66,Devon,,,,
2769,V10685,Dentists,UNKNOWN,Visible,TRUE,mydentist,,,,,,,,,,,,,,
2770,5QQ2390TT__000003_TQ124XX,Dentists,UNKNOWN,Visible,TRUE,Community Dental Service,Brunel Dental Centre,Brunel Road,,Newton Abbot,,TQ12 4XX,50.52770996,-3.596375942,Q66,Devon,,,,
2771,V11273,Dentists,UNKNOWN,Visible,TRUE,Queen Street Dental Practice ,Salters Cottage,6 Queen Street,,Budleigh Salterton,,EX9 6LB,50.62901688,-3.3259902,Q66,Devon,,,,
2791,V13147,Dentists,UNKNOWN,Visible,TRUE,Moor Dental Care,7 West Street,,,Ashburton,,TQ13 7DT,50.51480484,-3.756887436,Q66,Devon,,,,
2815,V12138,Dentists,UNKNOWN,Visible,TRUE,Dart Vale Dental Practice,24 Bridgetown,,,Totnes,,TQ9 5AD,50.43048859,-3.679490328,Q66,Devon,,,,
2868,5QW001,Dentists,UNKNOWN,Visible,TRUE,Shirley Dental Clinic,,276 Stratford Road,Shirley,Solihull,,B90 3AD,52.40950012,-1.82694447,Q54,Birmingham And The Black Country Area Team,0121 744 7693,,,
2869,5QW002,Dentists,UNKNOWN,Visible,TRUE,Hurst Lane Dental Clinic,,Hurst Lane North,Castle Bromwich,Birmingham,,B36 0EY,52.50435257,-1.762575865,Q54,Birmingham And The Black Country Area Team,0121 749 2756,,,
2870,5QW003,Dentists,UNKNOWN,Visible,TRUE,Land Lane Dental Clinic,,Land Lane,,Birmingham,,B37 7DQ,52.46602249,-1.746693611,Q54,Birmingham And The Black Country Area Team,0121 779 4844,,,
2888,V08036,Dentists,UNKNOWN,Visible,TRUE,Forest Road Dental Practice,16 Forest Road,,,Loughborough,,LE11 3NP,52.76664734,-1.210353851,Q59,Leicestershire And Lincolnshire Area Team,01509 233323,enquiries@forestroaddental.plus.com,http://www.forestroaddental.plus.com,01509 239924
2890,V09598,Dentists,UNKNOWN,Visible,TRUE,Community Dental Service,Steels Lane Special Care Dental Practice,384-397 Commercial Road,,London,,E1 0LR,51.51350021,-4.97E-02,Q71,London Area Team,020 7790 9619,,,020 7791 3681
2894,6237__000001_CV324BQ,Dentists,UNKNOWN,Visible,FALSE,Orthoworld,1st Floor,,,,,,,,,,,,,
2895,V12709,Dentists,UNKNOWN,Visible,FALSE,Community Dental Service,417 Ilford Lane,Ilford,Essex,,,IG1 2SN,51.54650497,7.69E-02,Q71,London Area Team,020 8822 3882,,http://www.onelcommunityservices.nhs.uk,
2896,636261__000001_IG27LE,Dentists,UNKNOWN,Visible,FALSE,CDS DENTAL DEPT,Newbury Park Health Centre,40 Perrymans Farm Road,Ilford,Essex,,IG2 7LE,51.57644653,0.085909404,Q71,London Area Team,020 8491 1566,,,
2897,V07285,Dentists,UNKNOWN,Visible,TRUE,Dentoral Dental Practice,,4c Swan Street,Loughborough,Leics,,LE11 5BE,52.77336121,-1.208913088,Q59,Leicestershire And Lincolnshire Area Team,01509 213385,,,
2898,V12322,Dentists,UNKNOWN,Visible,TRUE,Atlantic Dental Practice at Ropewalks,28  Argyle Street,,,Liverpool,,L1 5DL,53.401474,-2.984586716,Q48,Merseyside Area Team,0151 295 9870,,,
2899,V06405,Dentists,UNKNOWN,Visible,TRUE,Wednesfield Dental Practice,74 Lichfield Road,Wednesfield,Wolverhampton,West Midlands,,WV11 1TP,52.60337067,-2.078494549,Q54,Birmingham And The Black Country Area Team,01902 731734,wednesfielddentalpractice@live.co.uk,,01902 73633
2900,V12928,Dentists,UNKNOWN,Visible,TRUE,Holsworthy NHS Dental Care,1st Floor,,,,,,,,,,,,,
2902,64697__000001_SS73EG,Dentists,UNKNOWN,Visible,TRUE,The Benfleet Dental Studio,3 Downer Road North,,Benfleet,Essex,,SS7 3EG,51.56613541,0.567217886,Q57,Essex Area Team,01268 565156,,,
2907,V07662,Dentists,UNKNOWN,Visible,TRUE,Cheyne Walk Orthodontics,7 Cheyne Walk,Northampton,,Northampton,,NN1 5PT,52.23617554,-0.888863981,Q58,Hertfordshire And The South Midlands Area Team,01604 639877,,,
2908,V09893,Dentists,UNKNOWN,Visible,TRUE,Sutton Park Dental Centre,Sutton Park Dental Centre,43 Sutton Park Road,,Kidderminster,Worcestershire,DY11 6LD,52.37550735,-2.267313719,Q53,Arden,,,,
2909,662211__000003_IG26XA,Dentists,UNKNOWN,Visible,FALSE,Mr Korb's Dental Practice,128 Woodford Avenue,Gants Hill,Ilford,,,IG2 6XA,51.58140564,5.91E-02,Q71,London Area Team,,,,
2910,V10181,Dentists,UNKNOWN,Visible,TRUE,Langthorne Health Centre,,13 Langthorne Road,,London,,E11 4HX,51.55540466,2.11E-03,Q71,London Area Team,0208 4307510,,,
2911,V02528,Dentists,UNKNOWN,Visible,TRUE,Oak Hill Dental Practice,101 Oak Hill,Woodford Green,,Essex,,IG8 9PF,51.6037941,3.66E-03,Q71,London Area Team,020 8531 7976,oakhilldental@btconnect.com,,
2912,V09933,Dentists,UNKNOWN,Visible,FALSE,Community Dental Service,46 Ravenswood Road,Walthamstow,London,,,E17 9LY,51.58317566,-9.04E-03,Q71,London Area Team,020 8430 7111,,,
2913,V09603,Dentists,UNKNOWN,Visible,TRUE,Community Dental Service,Spitalfields Special Care Dental Practice,9-11 Brick Lane,,London,,E1 6PU,51.51813889,-7.14E-02,Q71,London Area Team,020 7247 8558,,,020 7247 2037
2914,V02916,Dentists,UNKNOWN,Visible,FALSE,Mr F AMINI,18 Church Hill,London,,,,E17 3AG,51.58504486,-1.80E-02,Q71,London Area Team,020 8520 3872,,,
2916,V01984,Dentists,UNKNOWN,Visible,TRUE,Whitehill House Dental Practice,Whitehall House,Mill Street,Corfe Mullen,WIMBORNE,Dorset,BH21 3RH,50.78640366,-2.037200212,Q70,Wessex Area Team,01258 857789,info@whitehallhousedental.co.uk,,
2917,V09542,Dentists,UNKNOWN,Visible,TRUE,Hainault Community dental service,Manford Way,Chigwell,,Essex,,IG7 4DF,51.60776138,0.104429975,Q71,London Area Team,020 3644 2028,,,
2920,V07709,Dentists,UNKNOWN,Visible,TRUE,Marylebone Dental Practice,61 Paddington Street,,,London,,W1U 4JD,51.52062225,-0.152522504,Q71,London Area Team,020 7935 2980,,,020 7487 4580
2921,V09396,Dentists,UNKNOWN,Visible,TRUE,Worcester Road Dental Practice,91 Worcester Road,Droitwich,Worcs,,,WR9 8AQ,52.2624855,-2.151808262,Q53,Arden,,,,
2923,V10014,Dentists,UNKNOWN,Visible,TRUE,Emergency Dental Care Revive Dental Care â€“ Liverpool,45 Everton Road,Liverpool,,Merseyside,,L6 2EH,53.41579437,-2.964590549,Q48,Merseyside Area Team,0161 476 9651,,http://www.revivedentalcare.co.uk/,
2924,V00113,Dentists,UNKNOWN,Visible,TRUE,Melcombe Avenue Dental Practice,,Weymouth Community Hospital,3 Melcombe Avenue,WEYMOUTH,Dorset,DT4 7TB,50.62105942,-2.451040506,Q70,Wessex Area Team,01305 761111,,,
2926,V09845,Dentists,UNKNOWN,Visible,TRUE,Dental Directorate,Hartington Road,Toxteth,,Liverpool,,L8 0SG,53.39500427,-2.944494724,Q48,Merseyside Area Team,0151 285 2811,,,
2928,V03786,Dentists,UNKNOWN,Visible,TRUE,Old Swan Dental Practice,6 Derby Lane,Old Swan,,Liverpool,,L13 3DL,53.41455078,-2.913949251,Q48,Merseyside Area Team,0151 228 3624,,,
2929,V07109,Dentists,UNKNOWN,Visible,TRUE,Longford Dental Practice,177 Longford Road,Longford,,Coventry,W Midlands,CV6 6EE,52.44976044,-1.486214757,Q53,Arden,,,,
2930,V07114,Dentists,UNKNOWN,Visible,TRUE,Rotherham Road Dental Practice,4 Rotherham Road,Coventry,,W Midlands,,CV6 4FE,52.44292831,-1.512187123,Q53,Arden,,,,
2933,V13226,Dentists,UNKNOWN,Visible,TRUE,TLC4 Smiles,30 Clifton Road,,,Ashbourne,Derbyshire,DE6 1DT,53.01066971,-1.740807056,Q55,Derbyshire And Nottinghamshire Area Team,01335 348694,tlc4smilesash@hotmail.co.uk,,
2934,V09417,Dentists,UNKNOWN,Visible,TRUE,Trinity Gate Dental Practice,Trinity Gate Mews,39 St Nicholas Street,Worcester,Worcs,,WR1 1UW,52.19400787,-2.219952583,Q53,Arden,,,,
2935,V12515,Dentists,UNKNOWN,Visible,TRUE,Bennisons Dental Practice ,Lowland Road,,,Brandon,Durham,DH7 8NN,54.75096512,-1.6306113,Q45,Durham,,,,
2936,V05425,Dentists,UNKNOWN,Visible,TRUE,Mawsley Dental Clinic  Ltd,Mawsley Dental,School Road,Mawsley Village,Kettering,Northamptonshire,NN14 1SN,52.37585831,-0.814496577,Q58,Hertfordshire And The South Midlands Area Team,01536 799210,mawsley@southerndental.co.uk,http://www.southerndental.co.uk,01536 799399
2938,V06820,Dentists,UNKNOWN,Visible,FALSE,Peachcroft Orthodontics,Unit 8 Peachcroft Shopping Centre,,Abingdon,Oxfordshire,,OX14 2QA,51.68460464,-1.265808105,Q69,Thames Valley Area Team,01235 559269,,http://www.pcortho.co.uk,01235 629559
2940,V08146,Dentists,UNKNOWN,Visible,TRUE,Heath Dental,Market Square,,,,,,,,,,,,,
2941,V12939,Dentists,UNKNOWN,Visible,TRUE,Burton Dental Care - Mr Al-Himdani,125 Burton Road,Didsbury,,Manchester,,M20 1JP,53.4294281,-2.239032984,Q46,Greater Manchester Area Team,0161 438 0446,,,
2942,V05770,Dentists,UNKNOWN,Visible,TRUE,West Hill Dental Care,2 Old Village Hall,West Hill,,Ottery St Mary,,EX11 1TP,50.74152756,-3.312683105,Q66,Devon,,,,
2943,V12327,Dentists,UNKNOWN,Visible,TRUE,Clearly Orthodontics,1A Main Street,Humberstone,,Leicester,Leicestershire,LE5 1AE,52.64693069,-1.075140953,Q59,Leicestershire And Lincolnshire Area Team,0116 2100 205,info@clearlyortho.co.uk,http://www.clearlyortho.co.uk,
2944,V05870,Dentists,UNKNOWN,Visible,TRUE,Harris Sidelsky Dental Practice,1005a Finchley Road,London,,Golders Green,,NW11 7HB,51.5780983,-0.197863206,Q71,London Area Team,020 8458 1611,,,
2945,V07643,Dentists,UNKNOWN,Visible,TRUE,Honor Oak Dental Clinic,Honor Oak,76 St Norbert Road,,London,,SE4 2EY,51.46291351,-3.87E-02,Q71,London Area Team,020 7635 8899,honaroak@southerndental.co.uk,http://www.southerndental.co.uk/,
2947,V05768,Dentists,UNKNOWN,Visible,TRUE,Ottery St Mary Dental Practice,Dental Surgery,Yonder Close,,Ottery St Mary,Devon,EX11 1HE,50.75097656,-3.275778532,Q66,Devon,,,,
2948,V07688,Dentists,UNKNOWN,Visible,TRUE,Dental Department St Andrews Hospital,Billing Road,,,Northampton,,NN1 5DG,52.23782349,-0.873987973,Q58,Hertfordshire And The South Midlands Area Team,01604 616254,,,
2949,V07728,Dentists,UNKNOWN,Visible,TRUE,Kingsthorpe Grove Dental Practice,3 Kingsthorpe Grove,Kingsthorpe,,Northampton,Northamptonshire,NN2 6NS,52.25891113,-0.898317516,Q58,Hertfordshire And The South Midlands Area Team,01604 719955,kingsthorpegroveds@gmail.com,,
2950,V08315,Dentists,UNKNOWN,Visible,FALSE,Swaby's Dental Practice,10-11 Swabys Yard,Walkergate,Beverley,N Humberside,,HU17 9BZ,53.84305191,-0.430976361,Q50,North Yorkshire And Humber Area Team,01482 335205,,,
2956,V10197,Dentists,UNKNOWN,Visible,TRUE,South East Essex Community Dental Service,Warrior House,42-82 Southchurch Road,,Southend-on-Sea,Essex,SS1 2LZ,51.5405426,0.715913773,Q57,Essex Area Team,01702 456819,,,01702 577041
2959,V07943,Dentists,UNKNOWN,Visible,TRUE,Mr MA Proud Dental Surgery,73 Weedon Road,Northampton,,Northampton,,NN5 5BG,52.24093246,-0.919193208,Q58,Hertfordshire And The South Midlands Area Team,01604 581728,,,01604 753626
2960,V11905,Dentists,UNKNOWN,Visible,TRUE,Leighton House Dental Practice,8a North Street,,,Leighton Buzzard,,LU7 1EN,51.91811371,-0.660305381,Q58,Hertfordshire And The South Midlands Area Team,01525 850058,reception@lbdentalcentre.co.uk,http://www.lbdentalcentre.co.uk,01525 850887
2964,V00178,Dentists,UNKNOWN,Visible,TRUE,mydentist,,,,,,,,,,,,,,
2969,V12696,Dentists,UNKNOWN,Visible,TRUE,Bridge Dental,58 Watling Street,,,Towcester,,NN12 6AF,52.12986755,-0.985548317,Q58,Hertfordshire And The South Midlands Area Team,01327 358214,bridge_dental@btconnect.com,,
2979,V12375,Dentists,UNKNOWN,Visible,TRUE,Faces and Smiles,Sainsbury's,Pound Lane,Norwich,Norfolk,,NR7 0SR,52.63083649,1.361434102,Q56,East Anglia Area Team,01603 700355,facesandsmile@plummers.co.uk,http://www.plummers.co.uk,01603 700369
2981,V05072,Dentists,UNKNOWN,Visible,TRUE,Central London Community Healthcare - Colville Health centre,,51 Kensington Park Road,,North Kensington,,W11 1PA,51.51581192,-0.206260726,Q71,London Area Team,0207 792 6141,,,
2982,V12707,Dentists,UNKNOWN,Visible,TRUE,Burgess & Hyder - The Dental Health Centre,Firthmoor Community Centre,Burnside Road,Darlington,Co Durham,,DL1 4SU,54.51557159,-1.524933577,Q45,Durham,,,,
2983,V12100,Dentists,UNKNOWN,Visible,TRUE,Burgess & Hyder Dental Practice,39 North End,Sedgefield,,Cleveland,,TS21 2AZ,54.65499115,-1.451576948,Q45,Durham,,,,
2985,8335760001__000002_TW183EQ,Dentists,UNKNOWN,Visible,TRUE,Thorpe Lea Dental Practice,Thorpe Road,,,Staines,,TW18 3EQ,51.43022919,-0.520643413,Q68,NHS England - South (South East),01784 454899,enquiries@thorpeleadental.com,http://www.thorpeleadental.com,01784 454964
2988,840696__000001_L203EF,Dentists,UNKNOWN,Visible,TRUE,Sefton Dental Centre,375 Stanley Road,Bootle,,Merseyside,,L20 3EF,53.45333862,-2.99129796,Q48,Merseyside Area Team,0151 944 2556,,,
2989,V04341,Dentists,UNKNOWN,Visible,TRUE,Dearne Valley Dental Practice,55 High Street,Goldthorpe,,Rotherham,,S63 9LQ,53.53145981,-1.303935766,Q51,South Yorkshire And Bassetlaw Area Team,01709 893000,dearnevalleydental@nhs.net,,01709 893555
2990,V13563,Dentists,UNKNOWN,Visible,TRUE,Grimethorpe and Shafton Dental Practice,Cemetery Road,Grimethorpe,,Barnsley,,S72 7ND,53.57619095,-1.376403332,Q51,South Yorkshire And Bassetlaw Area Team,01226 718345,grimethorpeshaftondentalpractice@nhs.net,,01226 710963
2991,V04966,Dentists,UNKNOWN,Visible,TRUE,Darfield Dental Practice,16 School Street,Darfield,,Barnsley,South Yorkshire,S73 9ET,53.53457642,-1.371915102,Q51,South Yorkshire And Bassetlaw Area Team,01226 756677,darfielddental@nhs.net,http://www.darfielddentalpractice.co.uk/,
2992,V10359,Dentists,UNKNOWN,Visible,TRUE,Oasis Dental care - Oakley Vale,Units 6 and 7 Butland Road,Corby,,Corby,,NN18 8QT,52.47343063,-0.706991374,Q58,Hertfordshire And The South Midlands Area Team,01536 744525,oakleyvale@oasisdentalcare.com,http://oakleyvaledental.co.uk,
2993,V09720,Dentists,UNKNOWN,Visible,TRUE,Trestone Orthodontic & Minor Oral Surgery Practice,Trestone Orthodontic Practice,Tresparret,Camelford,Cornwall,,PL32 9ST,50.6962471,-4.628405571,Q66,Devon,,,,
2994,V13470,Dentists,UNKNOWN,Visible,TRUE,Mr F Jamall - Pennington Dental,Stratford Healthcare,Arden Street,Stratford Upon Avon,Warwickshire,,CV37 6HJ,52.19496155,-1.712699771,Q53,Arden,,,,
2995,V03371,Dentists,UNKNOWN,Visible,TRUE,Cricklewood Dental Surgery,Cricklewood Dental Practice,165 Cricklewood Broadway,Cricklewood,London,,NW2 3HY,51.55599213,-0.214806989,Q71,London Area Team,020 8452 5504,cricklewooddentalpractice@yahoo.co.uk,http://www.smileandbeauty.co.uk/,
2996,V11530,Dentists,UNKNOWN,Visible,TRUE,Langdon Hills Dental Care,1 Alpha House,,,,,,,,,,,,,
2997,V13229,Dentists,UNKNOWN,Visible,TRUE,River Practice Ltd (Orthodontics),Castle Mews,10 Castle Street,Truro,Cornwall,,TR1 3AF,50.26441193,-5.055391312,Q66,Devon,,,,
2998,V09056,Dentists,UNKNOWN,Visible,TRUE,Wight Dental Care,Tower House,,,,,,,,,,,,,
2999,V13415,Dentists,UNKNOWN,Visible,TRUE,mydentist,,,,,,,,,,,,,,
3000,V00386,Dentists,UNKNOWN,Visible,TRUE,Woodbridge Dental Surgery Ltd,,1 Woodbridge Road East,,Ipswich,Suffolk,IP4 5QP,52.06067276,1.19480288,Q56,East Anglia Area Team,01473 728886,woodbridgeroaddentalsurgery@gmail.com,,01473 728886
3001,V11094,Dentists,UNKNOWN,Visible,TRUE,St John's Dental Practice,Inch Arran House,Ringhill Street,Poundbury,DORCHESTER,Dorset,DT1 3BX,50.71544647,-2.467512846,Q70,Wessex Area Team,01305 265559,practice@stjohns-dentapol.co.uk,http://www.dentapol.co.uk/dentapol/dentapol.html,
3003,V13358,Dentists,UNKNOWN,Visible,TRUE,Orchid Dental,,47 Holly Road,Kesgrave,Ipswich,Suffolk,IP5 1HX,52.06213379,1.221114159,Q56,East Anglia Area Team,01473 610160,orchid.dental@gmail.com,,
3006,V00997,Dentists,UNKNOWN,Visible,TRUE,Christchurch Dental Centre,Christchurch Dental Centre,16a Arthur Road,Off Stour Road,Christchuch,Dorset,BH23 1PU,50.73753357,-1.785768032,Q70,Wessex Area Team,1202478973,christchurchpm@idhgroup.co.uk,https://www.mydentist.co.uk,1202482289
3008,V14152,Dentists,UNKNOWN,Visible,TRUE,Red Lodge Dental Surgery,,18 Boundary Road,Red Lodge,Bury St Edmunds,Suffolk,IP28 8JQ,52.30783081,0.493764609,Q56,East Anglia Area Team,01638 750905,reception@redlodgedentalsurgery.co.uk,http://www.redlodgedentalsurgery.co.uk,
3009,V11759,Dentists,UNKNOWN,Visible,TRUE,Sherborne Dental Centre,Yeatman Hospital,Hospital Lane,,SHERBORNE,Dorset,DT9 3JF,50.94942474,-2.519513607,Q70,Wessex Area Team,01935 817827,,http://www.sherbornedentalcentre.com,
3010,V05504,Dentists,UNKNOWN,Visible,TRUE,ADP Rushden,,160 Newton Road,,Rushden,Northamptonshire,NN10 0PG,52.28897858,-0.59680444,Q58,Hertfordshire And The South Midlands Area Team,1933317834,rushden-pm@idhgroup.co.uk,https://www.mydentist.co.uk,1933319168
3012,V13179,Dentists,UNKNOWN,Visible,TRUE,Shirebrook Dental Care,29 Station Road,,Shirebrook,Nottinghamshire,,NG20 8TA,53.20436096,-1.205387831,Q55,Derbyshire And Nottinghamshire Area Team,01623 744025,,,
3014,93__000002_S88DX,Dentists,UNKNOWN,Visible,TRUE,Jordanthorpe Dental Clinic,,Dyche Close,Jordanthorpe,SHEFFIELD,,S8 8DJ,53.32320786,-1.463838577,Q51,South Yorkshire And Bassetlaw Area Team,0114 237 1162,,,
3015,V09395,Dentists,UNKNOWN,Visible,TRUE,Mr T Mirza,Malvern Spring Dental Practice,58 Spring Lane,,Malvern,Worcestershire,WR14 1AJ,52.12699509,-2.310451508,Q53,Arden,,,,
3016,V05522,Dentists,UNKNOWN,Visible,TRUE,Cornhill Dental Centre,,22 Cornhill,Market Place,Banbury,Oxfordshire,OX16 5NG,52.06270218,-1.33638227,Q69,Thames Valley Area Team,01295 258400,banbury2-rec@idhgroup.co.uk,https://www.mydentist.co.uk,
3017,V09229,Dentists,UNKNOWN,Visible,TRUE,Billericay Dental Care,Crown Yard,High Street,Billericay,Essex,,CM12 9BX,51.62452316,0.417603105,Q57,Essex Area Team,01277 625456,,http://www.billericaydentalcare.co.uk,01277 625570
3018,V09421,Dentists,UNKNOWN,Visible,TRUE,Community Dental Service - Ashfields - Sandbach,Middlewich Road,Sandbach,,Cheshire,,CW11 1EQ,53.14465332,-2.367561102,Q44,Cheshire,,,,
3019,944335__000003_KT123ET,Dentists,UNKNOWN,Visible,TRUE,Walton Park Dental Practice,Walton Park Dental Practice,2A Walton Park,,Walton-on-Thames,,KT12 3ET,51.37989426,-0.396389306,Q68,NHS England - South (South East),01932 220449,,,
3021,V04747,Dentists,UNKNOWN,Visible,FALSE,Mr SW Greaves,Dental Surgery,Roke Lane,Witley,Godalming,,GU8 5NA,51.15395737,-0.647934079,Q68,NHS England - South (South East),01428 684284,,,
3022,V09785,Dentists,UNKNOWN,Visible,TRUE,Church Street Health Centre,6a Church Street,Somersham,Huntingdon,Cambridgeshire,,PE28 3EG,52.38096619,-2.62E-03,Q56,East Anglia Area Team,01487 843023,,,
3024,V00998,Dentists,UNKNOWN,Visible,TRUE,Stephen House Dental Practice,Suite B,23a Bargates,,CHRISTCHURCH,Dorset,BH23 1QD,50.73652267,-1.779324889,Q70,Wessex Area Team,01202 485993,,,
3025,V08055,Dentists,UNKNOWN,Visible,FALSE,Mr Schnel,1 White Hart Lane,,Hockley,Essex,,SS5 4DQ,51.59955978,0.662609041,Q57,Essex Area Team,01702 206640,,,
3654,V14206,Dentists,UNKNOWN,Visible,TRUE,Bridge Park Dental Practice,,Unit 12 Great Bridge Street,,West Bromwich,,B70 0EN,52.5296669,-2.029629707,Q54,Birmingham And The Black Country Area Team,0330 123 9118,,,
4443,V02713,Dentists,UNKNOWN,Visible,TRUE,Dr Issa & Partners,179 New Line,Greengates,,Bradford,,BD10 0BN,53.8300972,-1.708325982,Q52,West Yorkshire Area Team,01274 615852,,,
4444,V11005,Dentists,UNKNOWN,Visible,TRUE,Carnegie Dental Clinic Limited,,9-13 Leeds Road,,Shipley,,BD18 1BP,53.83457184,-1.767798781,Q52,West Yorkshire Area Team,01274 590777,contact@carnegieclinic.com,http://www.carnegieclinic.com,
4445,V08344,Dentists,UNKNOWN,Visible,TRUE,Saltaire Orthodontics,Saltaire Orthodontics,4 Victoria Road,,Shipley,,BD18 3LA,53.83821487,-1.789858937,Q52,West Yorkshire Area Team,01274 531567,,http://www.saltaireorthodontics.co.uk,
4447,V02960,Dentists,UNKNOWN,Visible,TRUE,A One Dental Practice,983 Leeds Road,983 Leeds Road,,Bradford,,BD3 7ND,53.79932785,-1.71017909,Q52,West Yorkshire Area Team,01274 664635,,,
4448,BD38EL__000002_BD38EL,Dentists,UNKNOWN,Visible,TRUE,Leeds Road Dental Practice,,649 Leeds Road,,Bradford,,BD3 8EL,53.79282379,-1.723278642,Q52,West Yorkshire Area Team,01274 664913,,,
4450,V10590,Dentists,UNKNOWN,Visible,TRUE,Marlborough Road Dental Practice,5 Marlborough Road,Manningham,,Bradford,,BD8 7LD,53.80610275,-1.766361594,Q52,West Yorkshire Area Team,01274 546673,,,
4451,V14084,Dentists,UNKNOWN,Visible,TRUE,Summerville Road Dental Practice,Grange Interlink Community Centre,Summerville Road,,Bradford,,BD7 1PX,53.78942871,-1.770855904,Q52,West Yorkshire Area Team,01274 423197,,,
4452,BGWK__000002_TA63BS,Dentists,UNKNOWN,Visible,TRUE,ADP Maldon House Dental Practice,10 York Buildings,,,Bridgwater,,TA6 3BS,51.12889481,-3.003833055,Q65,Bristol,,,,
4453,V13304,Dentists,UNKNOWN,Visible,TRUE,Corner House Dental Practice,10 King Square,,,Bridgwater,,TA6 3DG,51.12936783,-3.003528833,Q65,Bristol,,,,
4454,V13980,Dentists,UNKNOWN,Visible,TRUE,Taunton Road Dental Practice,14 King Street,,,Bridgwater,,TA6 3ND,51.12835693,-3.00186348,Q65,Bristol,,,,
4455,V14141,Dentists,UNKNOWN,Visible,TRUE,Ferndown Dental Practice,,400/402 Ringwood Road,,FERNDOWN,Dorset,BH22 9AU,50.80080032,-1.890556931,Q70,Wessex Area Team,01202 896156,,,
4456,V13175,Dentists,UNKNOWN,Visible,TRUE,Christchurch Orthodontics,,67 Stour Road,,CHRISTCHURCH,Dorset,BH23 1LN,50.73545837,-1.785791636,Q70,Wessex Area Team,01202 483768,info@christchurchorthodontics.co.uk,http://www.christchurchorthodontics.co.uk/,
4457,V14531,Dentists,UNKNOWN,Visible,TRUE,Avon Dental Practice,Avon Dental Practice,,,,,,,,,,,,,
4461,V08259,Dentists,UNKNOWN,Visible,TRUE,Synergy Dental Clinic,,10 Tenterden Street,,Bury,Lancashire,BL9 0EG,53.59127045,-2.300935984,Q46,Greater Manchester Area Team,0161 764 4366,bury@synergydental.org.uk,http://synergydental.org.uk/dentist-in-bury/,
4478,V05754,Dentists,UNKNOWN,Visible,TRUE,Budleigh Salterton Dental Practice,,11 Station Road,,Budleigh Salterton,Devon,EX9 6RW,50.63217545,-3.328355551,Q66,Devon,,,,
5517,V04444,Dentists,UNKNOWN,Visible,TRUE,Bramcote Dental Practice,Bramcote,Woodcock Street,,Castle Cary,,BA7 7BJ,51.08896255,-2.515019178,Q65,Bristol,,,,
5518,V01242,Dentists,UNKNOWN,Visible,TRUE,Camborne Dental Practice,,22 Chapel Street,,Camborne,Cornwall,TR14 8ED,50.21307755,-5.299360752,Q66,Devon,,,,
5519,V08039,Dentists,UNKNOWN,Visible,TRUE,C Carre,Unit U43,Stretford Mall,,Stretford,,M32 9BB,53.4452095,-2.310802221,Q46,Greater Manchester Area Team,0161 865 2431,,,
5523,V01971,Dentists,UNKNOWN,Visible,TRUE,Brookfields Community Dental Services,,Brookfields Health Centre,Seymour Street,Cambridge,Cambridgeshire,CB1 3DQ,52.19827271,0.154223412,Q56,East Anglia Area Team,01223 723100,,,01223 723101
5524,V04124,Dentists,UNKNOWN,Visible,TRUE,Centre Point Dental Practice,Flat 4,,,,,,,,,,,,,
5526,V04458,Dentists,UNKNOWN,Visible,TRUE,Springside Dental Practice,33a Fore Street,,,Chard,,TA20 1PT,50.87282562,-2.963215828,Q65,Bristol,,,,
5527,V12273,Dentists,UNKNOWN,Visible,TRUE,mydentist,,,,,,,,,,,,,,
5528,V12811,Dentists,UNKNOWN,Visible,TRUE,Circle Dental Care Ltd,16a The Circle,Barton Road,Stretford,Manchester,,M32 9TR,53.45651245,-2.336471319,Q46,Greater Manchester Area Team,0161 748 2605,info@circledental.com,,0161 748 4596
5529,V12932,Dentists,UNKNOWN,Visible,TRUE,The Crewkerne Dental Centre Ltd,4 Bere Court,Old Mill Lane,,Crewkerne,,TA18 7BN,50.89081955,-2.794836283,Q65,Bristol,,,,
5565,V04624,Dentists,UNKNOWN,Visible,TRUE,Prettygate Dental,Prettygate Dental,306 Mersea Road,,Colchester,Essex,CO2 8QY,51.86564636,0.908156991,Q57,Essex Area Team,01206 548386,enquiry@prettygatedental.co.uk,,
5613,V10212,Dentists,UNKNOWN,Visible,TRUE,Kentish Town Urgent Dental Service and Whittington Health NHS Oral Surgery Service (Camden),Whittington Health NHS,Kentish Town Health Centre,2 Bartholomew Road,London,,NW5 2BX,51.5461998,-0.139963239,Q71,London Area Team,0203 317 2014,,http://www.camdenccg.nhs.uk/publications/urgent-dental-service,0207 813 8679
5618,V06091,Dentists,UNKNOWN,Visible,TRUE,Holywell House Nuneaton,115 Manor Court Road,,Nuneaton,Warwickshire,,CV11 5HQ,52.52426529,-1.479509592,Q53,Arden,,,,
5619,V12378,Dentists,UNKNOWN,Visible,TRUE,Accessible Orthodontics,1 Back Street,Nuneaton,,Warks,,CV11 4DG,52.52449417,-1.46454668,Q53,Arden,,,,
5620,V12603,Dentists,UNKNOWN,Visible,TRUE,Wood End Dental Practice,Deedmore Road,Wood End,,Coventry,West Midlands,CV2 1XA,52.43544769,-1.464522958,Q53,Arden,,,,
5622,V10935,Dentists,UNKNOWN,Visible,TRUE,Holywell House Rugby,135 Clifton Road,,Rugby,Warwickshire,,CV21 3QN,52.37262344,-1.247744441,Q53,Arden,,,,
5623,V10298,Dentists,UNKNOWN,Visible,TRUE,Stoke Aldermoor Dental Surgery,Aldermoor Lane,Stoke Aldermoor,,Coventry,West Midlands,CV3 1BN,52.40214539,-1.479550838,Q53,Arden,,,,
5625,V06116,Dentists,UNKNOWN,Visible,TRUE,Leamington Spa Orthodontic Centre,21 Waterloo Place,,Leamington Spa,Warwickshire,,CV32 5LA,52.29208755,-1.538711309,Q53,Arden,,,,
5626,V06138,Dentists,UNKNOWN,Visible,TRUE,Brook House Dental Practice,Moreton Morrell,,Warwick,Warwickshire,,CV35 9AR,52.20059586,-1.546067357,Q53,Arden,,,,
5627,V10046,Dentists,UNKNOWN,Visible,TRUE,Family Dental Practice,10 Sheep Street,Shipston On Stour,,Warwickshire,,CV36 4AF,52.06356049,-1.624957085,Q53,Arden,,,,
5628,V06154,Dentists,UNKNOWN,Visible,FALSE,Stratford Orthodontic Centre,6 Rother Street,,Stratford Upon Avon,Warwickshire,,CV37 6LU,52.19234848,-1.710478425,Q53,Arden,,,,
5630,V07089,Dentists,UNKNOWN,Visible,TRUE,Canley Dental Surgery ,5 Mayors Croft,Canley,,Coventry,,CV4 8FF,52.39379883,-1.563104868,Q53,Arden,,,,
5631,V12602,Dentists,UNKNOWN,Visible,TRUE,Tile Hill Dental Practice,Jardine Crescent,Tile Hill,,Coventry,West Midlands,CV4 9PN,52.40683746,-1.578543305,Q53,Arden,,,,
5632,V12631,Dentists,UNKNOWN,Visible,TRUE,Pennington Dental - Southam,Vivian House,,,,,,,,,,,,,
5639,V08760,Dentists,UNKNOWN,Visible,TRUE,Community Dental Service - Nantwich,Dental Clinic,Church View Health Centre,,Nantwich,,CW5 5NX,53.06816101,-2.518552065,Q44,Cheshire,,,,
5641,V09556,Dentists,UNKNOWN,Visible,TRUE,Community Dental Service - Winsford ,Dene Drive,,,,,,,,,,,,,
5642,V08769,Dentists,UNKNOWN,Visible,TRUE,Emergency Dental Service - Northwich,Victoria Infirmary,Victoria Informary,,Northwich,,CW8 1AN,53.26214981,-2.519292831,Q44,Cheshire,,,,
5643,V09336,Dentists,UNKNOWN,Visible,TRUE,Community Dental Service - Northwich,Victoria Infirmary,Winnington Hill,,Northwich,,CW8 1AW,53.26195908,-2.519800186,Q44,Cheshire,,,,
5646,V12078,Dentists,UNKNOWN,Visible,TRUE,PERFECT SMILE CLINIC,252-254 Easterly Road,Oakwood,,Leeds,West Yorkshire,LS8 3ES,53.82049942,-1.496537328,Q52,West Yorkshire Area Team,0113 2486777,,http://www.perfectsmileclinic.co.uk,
5647,V02747,Dentists,UNKNOWN,Visible,TRUE,Indigo Dental,106a Dixon Lane,106a Dixon Lane,,Leeds,,LS12 4AD,53.78323746,-1.586843848,Q52,West Yorkshire Area Team,0113 2632960,,,
5648,V12642,Dentists,UNKNOWN,Visible,TRUE,Dentistry@BD4,Tyrone House,134 Holme Lane,,Bradford,,BD4 0PU,53.76847458,-1.706674457,Q52,West Yorkshire Area Team,01274 688600,,,
5649,V25140,Dentists,UNKNOWN,Visible,FALSE,Orthodontic Practice,1a Bell Alley,,Leighton Buzzard,Beds,,LU7 1DG,51.9158287,-0.661085784,Q58,Hertfordshire And The South Midlands Area Team,01525 383065,,http://www.smilecreations.co.uk,
5650,V10787,Dentists,UNKNOWN,Visible,TRUE,Synergy Dental Practice,Synergy Dental Clinic,370 Central Drive,,Blackpool,,FY1 6LA,53.80067825,-3.043339252,Q47,Lancashire Area Team,01253 348616,info@synergydental.org.uk,http://www.synergydental.org.uk/dentist-in-blackpool/,
5652,V01892,Dentists,UNKNOWN,Visible,TRUE,Mr H R Letuka,Belks Court,Pontefract,,West Yorkshire,,WF8 1DF,53.69161224,-1.313973188,Q52,West Yorkshire Area Team,1977702054,,,
5755,V01882,Dentists,UNKNOWN,Visible,TRUE,Mr A W Robinson,295 New Hall Lane,Preston,Lancs,,,PR1 5XE,53.76543045,-2.669997692,Q47,Lancashire Area Team,01772 794468,,,01772 797642
6048,V08264,Dentists,UNKNOWN,Visible,TRUE,The Dental Practice,72 Bridge Street,Ramsbottom,Bury,Lancs,,BL0 9AG,53.64848328,-2.317863226,Q46,Greater Manchester Area Team,01706 827755,,,
6051,V12285,Dentists,UNKNOWN,Visible,TRUE,DCO Dental,53c Mainwood Road,Timperley,,Altrincham,,WA15 7JW,53.39237976,-2.312927961,Q46,Greater Manchester Area Team,0161 980 6745,dcodental@chessmail.co.uk,http://www.dcodental.co.uk,0161 903 9029
6052,V11266,Dentists,UNKNOWN,Visible,TRUE,Glodwick Dental Practice,1st Floor,,,,,,,,,,,,,
6053,V12564,Dentists,UNKNOWN,Visible,TRUE,Williams Place NHS Dental Practice ,William Place,Bow,,London,,E3 5ED,51.53221512,-3.09E-02,Q71,London Area Team,020 8821 2830,reception@williamplacedental.co.uk,http://www.williamplacedental.co.uk/,
6054,V08898,Dentists,UNKNOWN,Visible,TRUE,mydentist,,,,,,,,,,,,,,
6056,V09139,Dentists,UNKNOWN,Visible,TRUE,Dr F C Heylings,882 Spring Bank West,Hull,,N Humberside,,HU5 5AW,53.75034714,-0.392240137,Q50,North Yorkshire And Humber Area Team,01482 354124,,,
6058,V08840,Dentists,UNKNOWN,Visible,TRUE,The Lund Dental Practice,738 Beverley Road,Hull,,N Humberside,,HU6 7JG,53.77567291,-0.35594371,Q50,North Yorkshire And Humber Area Team,01482 853146,info@lunddental.co.uk,,
6059,V10951,Dentists,UNKNOWN,Visible,TRUE,IDH Marfleet,Preston Road,,,Hull,,HU9 5HH,53.75598526,-0.265974075,Q50,North Yorkshire And Humber Area Team,01482 344325,,,
6060,V11641,Dentists,UNKNOWN,Visible,TRUE,mydentist,,,,,,,,,,,,,,
6061,V04945,Dentists,UNKNOWN,Visible,TRUE,Kings Specialist Dental Practice Partnership,Kings Specialist Dental Practice,Midland Bank Chambers,3 Market Hill,Barnsley,South Yorkshire,S70 2PU,53.55324554,-1.482159019,Q51,South Yorkshire And Bassetlaw Area Team,1226200025,barnsley6-pm@idhgroup.co.uk,http://idhgroup.co.uk/,1226733683
6062,V05698,Dentists,UNKNOWN,Visible,TRUE,mydentist,,,,,,,,,,,,,,
6063,V09127,Dentists,UNKNOWN,Visible,TRUE,Willerby Dental Care,81 Kingston Road,,,Willerby,Yorkshire(East Riding),HU10 6AH,53.75579453,-0.440452695,Q50,North Yorkshire And Humber Area Team,01482 656656,appointments@willerbydentalcare.co.uk,http://www.willerbydentalcare.co.uk,
6064,V04026,Dentists,UNKNOWN,Visible,FALSE,New Road Dental Surgery,6 New Road,Driffield,N Humberside,,,YO25 5DL,54.00695801,-0.436109275,Q50,North Yorkshire And Humber Area Team,01377 254194,,,
6065,V05226,Dentists,UNKNOWN,Visible,TRUE,Perfect 32 Dental Practice,8 Ladygate,Beverley,N Humberside,,,HU17 8BH,53.84361649,-0.43227762,Q50,North Yorkshire And Humber Area Team,01482 863667,,,
6066,V11796,Dentists,UNKNOWN,Visible,TRUE,Apex Dental Care Ltd,,9 Bury Road,,Brandon,Suffolk,IP27 0BU,52.44598389,0.624372363,Q56,East Anglia Area Team,01842 812276,brandon@apex-dental.co.uk,,01842 819425
6067,V02179,Dentists,UNKNOWN,Visible,TRUE,Wapping Dental Centre,Wapping Dental Centre,172 The Highway,Wapping,London,,E1W 3DD,51.50970459,-5.85E-02,Q71,London Area Team,020 7481 1013,,http://www.wappingdentalcentre.com,
6068,DE_001__000002_PR90PA,Dentists,UNKNOWN,Visible,FALSE,Mr W W Lee,22 Hoghton Street,Southport,Merseyside,,,PR9 0PA,53.64834213,-3.000890017,Q48,Merseyside Area Team,01704 531038,,,01704 531009
6069,V02206,Dentists,UNKNOWN,Visible,TRUE,Chrisp Street Dental Centre,24 Market Way,Poplar,London,,,E14 6AH,51.51319122,-0.015115417,Q71,London Area Team,020 7093 0959,,,020 7093 0997
6070,V02732,Dentists,UNKNOWN,Visible,TRUE,Manor Orthodontic and Implant Clinic,48 Woodberry Grove,London,, Finsbury Park,,N4 1SN,51.57263184,-9.33E-02,Q71,London Area Team,020 8800 8581,manorsdc@aol.com,,0208 8022403
6071,V01678,Dentists,UNKNOWN,Visible,FALSE,Newcastle PCT Dental Services,Address Only Available By Contacting NHS Direct,,Newcastle Upon Tyne,,,NE6 2UZ,54.97967911,-1.576049209,Q49,Cumbria,,,,
6072,V08077,Dentists,UNKNOWN,Visible,TRUE,Cairn Brae Dental Practice,2 Maldon Road,,,Witham,Essex,CM8 2AB,51.79908371,0.640889168,Q57,Essex Area Team,01376 501688,,http://www.cairnbraedental.co.uk/,
6074,V06069,Dentists,UNKNOWN,Visible,TRUE,Dentaire Dental Care,96a-100a Market Street,Hednesford,,Cannock,Staffordshire,WS12 1AG,52.70928574,-1.99905479,Q60,Shropshire And Staffordshire Area Team,01543 871616,tony@dentaire.co.uk,http://www.dentaire.co.uk,
6075,V03202,Dentists,UNKNOWN,Visible,TRUE,Phoenix Orthodontic Practice,13/14 Mary Rose Mall,Beckton,,London,,E6 5LX,51.51451492,5.78E-02,Q71,London Area Team,020 7473 4411,,,0207 511 2272
6076,V05928,Dentists,UNKNOWN,Visible,TRUE,Wilmslow Dental Practice,26 Chapel Lane,Wilmslow,,Cheshire,,SK9 5HZ,53.32275009,-2.240252256,Q44,Cheshire,,,,
6077,V12170,Dentists,UNKNOWN,Visible,TRUE,The Brace Orthodontic Practice,,15 Artillery Passage,,London,,E1 7LJ,51.51808548,-7.74E-02,Q71,London Area Team,020 7247 5768,londoncity@thebrace.com,http://www.thebrace.com,
6078,V08070,Dentists,UNKNOWN,Visible,TRUE,Braintree Dental Centre,9c Coggeshall Road,,Braintree,Essex,,CM7 9DB,51.88020706,0.55437386,Q57,Essex Area Team,01376 321 061,braintree.dental1@btconnect.com,http://dentistinbraintree.co.uk/,01376 321061
6079,V04379,Dentists,UNKNOWN,Visible,FALSE,Zabihi Helena,92 Cannon Lane,Pinner,Pinner,Middx,,HA5 1HP,51.58528137,-0.382370323,Q71,London Area Team,020 8866 6007,,,
6080,V07154,Dentists,UNKNOWN,Visible,TRUE,Bright Dental Practice,300 Kenton Road,Harrow,Middx,,,HA3 8DD,51.58625412,-0.308271021,Q71,London Area Team,020 8907 7733,,,
6082,V07029,Dentists,UNKNOWN,Visible,TRUE,Purely Orthodontics,1st Floor Office,,,,,,,,,,,,,
6083,V07024,Dentists,UNKNOWN,Visible,TRUE,Tan & Kazemi Orthodontic Practice,Suite E,,,,,,,,,,,,,
6084,V02655,Dentists,UNKNOWN,Visible,TRUE,mydentist,,,,,,,,,,,,,,
6085,DE_243__000003_YO307BH,Dentists,UNKNOWN,Visible,TRUE,Mr J C Hunter,64 Marygate,York,,N Yorkshire,,YO30 7BH,53.96248627,-1.089517474,Q50,North Yorkshire And Humber Area Team,01904 671772,smile@yorkorthodontics.co.uk,,01904 675666
6087,V05916,Dentists,UNKNOWN,Visible,TRUE,East Finchley Smiles,144 High Road,London,London,London,,N2 9ED,51.5908432,-0.164357007,Q71,London Area Team,020 8444 3436,info@eastfinchleysmiles.co.uk,,
6088,V05177,Dentists,UNKNOWN,Visible,TRUE,Azure Dental Practice,,121 Bawtry Road,Tinsley,SHEFFIELD,,S9 1UF,53.41202927,-1.396528244,Q51,South Yorkshire And Bassetlaw Area Team,0114 244 5278,,http://www.azuredentalpractice.co.uk/,
6089,V07158,Dentists,UNKNOWN,Visible,TRUE,mydentist,,,,,,,,,,,,,,
6090,V04996,Dentists,UNKNOWN,Visible,FALSE,Balcombe Dental Practice,51 Goodwyn Avenue,London,,,,NW7 3RJ,51.6156311,-0.247076467,Q71,London Area Team,020 8959 1907,,,
6091,V05910,Dentists,UNKNOWN,Visible,FALSE,Gental Dental Care,2b Golders Green Road,London,,,,NW11 8LH,51.57209015,-0.195936307,Q71,London Area Team,020 8455 9580,,,
6093,DE_5A2__000001_NR268RT,Dentists,UNKNOWN,Visible,TRUE,Dental Access Centre,Cromer Road,,,Sheringham,,NR26 8RT,52.93960571,1.214740396,Q56,East Anglia Area Team,01603 776834,,,
6094,V10494,Dentists,UNKNOWN,Visible,FALSE,Siskin Dental Access Centre,Bowthorpe Road,Norwich,Norfolk,,,NR2 3TU,52.63375092,1.262380838,Q56,East Anglia Area Team,01603 776834,,,01603 776834
6095,V03535,Dentists,UNKNOWN,Visible,TRUE,Southend Road Dental Surgery,166 South End Road,Rainham,,Essex,,RM13 7XR,51.53345871,0.19202815,Q71,London Area Team,01708 555525,,,01708 555527
6096,V08500,Dentists,UNKNOWN,Visible,TRUE,Smiles Dental Practice,196-198 Main Road,Biggin Hill,Westerham,Kent,,TN16 3BB,51.30834961,3.85E-02,Q71,London Area Team,01959 571999,,,01959 571991
6097,V06738,Dentists,UNKNOWN,Visible,TRUE,Green Lane Dental Centre,Green Lane Dental Centre,17 Green Lane,Penge,London,,SE20 7JA,51.41472626,-5.04E-02,Q71,London Area Team,0208 776 9776,,,
6098,V05613,Dentists,UNKNOWN,Visible,TRUE,Mrs B Vaheeswaran & Associate,Chatterton Dental Surgery,51 Chatterton Road,,Bromley,Kent,BR2 9QQ,51.39167786,3.68E-02,Q71,London Area Team,0208 460 0476,,,
6099,V05924,Dentists,UNKNOWN,Visible,TRUE,Chelsfield Dental Practice,17 Windsor Drive,Chelsfield,Orpington,Kent,,BR6 6EY,51.35634995,0.105311014,Q71,London Area Team,01689 889302,,,01689 889301
6100,V04973,Dentists,UNKNOWN,Visible,TRUE,Corner House Dental Practice,2 Colin Park Road,London,,,,NW9 6HS,51.58989716,-0.251936138,Q71,London Area Team,020 8205 8300,ffard@hotmail.com,,
6101,V05483,Dentists,UNKNOWN,Visible,TRUE,Poundswick Lane Dental Practice,18 Poundswick Lane,Wythenshawe,,Manchester,,M22 9TD,53.38216019,-2.26037097,Q46,Greater Manchester Area Team,0161 499 3141,info@poundswickdentalpractice.co.uk,http://www.poundswickdentalpractice.co.uk,
6102,V08745,Dentists,UNKNOWN,Visible,TRUE,Mr B Sanghera,Green Tree Dental Peterborough,95 Lincoln Road,,Peterborough,,PE1 2SJ,52.58020401,-0.243075401,Q56,East Anglia Area Team,01733 562436,peterborough@greentreedental.co.uk,http://www.greentreedental.co.uk,
6103,V07838,Dentists,UNKNOWN,Visible,TRUE,The Hamptons Dental Practice,,52 Hargate Way,Hampton Hargate,Peterborough,Cambridgeshire,PE7 8DS,52.5385437,-0.272003502,Q56,East Anglia Area Team,01733 341777,diane.bowers@thepepperclinics.com,http://www.thepepperclinics.com,
6104,V07353,Dentists,UNKNOWN,Visible,TRUE,Longford House Dental Practice,32 St andrew's Road,Shoeburyness,Southend On Sea,Essex,,SS3 9HZ,51.52978897,0.779655933,Q57,Essex Area Team,01702 292615,,,01702 293184
6105,V02707,Dentists,UNKNOWN,Visible,TRUE,mydentist,,,,,,,,,,,,,,
6106,V02067,Dentists,UNKNOWN,Visible,TRUE,Regent Orthodontics,2a Regent Road,,,Ilkley,,LS29 9EA,53.92509842,-1.827645421,Q52,West Yorkshire Area Team,01943 604 402,,http://www.regentorthodontics.co.uk,01943 604403
6107,V02698,Dentists,UNKNOWN,Visible,TRUE,Barbican Orthodontic Clinic,84-85 Long Lane,Barbican,London,,,EC1A 9ET,51.51966095,-0.098522998,Q71,London Area Team,020 7726 8282,,,
6108,V02170,Dentists,UNKNOWN,Visible,FALSE,221 Dental Surgery,221 Whitechapel Road,Whitechapel,London,,,E1 1DE,51.51885986,-6.22E-02,Q71,London Area Team,020 7247 5378,,,
6109,de_5C472612__000001_E17NE,Dentists,UNKNOWN,Visible,TRUE,Alba Dental Care,32 Toynbee Street,,London,,,E1 7NE,51.51777267,-7.47E-02,Q71,London Area Team,020 7377 6886,,,020 7377 6886
6110,V04862,Dentists,UNKNOWN,Visible,TRUE,Anna House Dental Clinic,214-218 High Road,London,,,,N15 4NP,51.58258057,-7.15E-02,Q71,London Area Team,020 8885 5777,,,
6111,V06902,Dentists,UNKNOWN,Visible,TRUE,Dentalign Orthodontics Blackburn,19 Richmond Terrace,Blackburn,,Lancs,,BB1 7BL,53.75071335,-2.483992577,Q47,Lancashire Area Team,01254 261161,reception.blackburn@dentaligngroup.co.uk,http://blackburn.dentalign.co.uk,01254 679498
6113,DE_5CK003__000002_DN25BE,Dentists,UNKNOWN,Visible,TRUE,Whitegates Dental Surgery,103 Thorne Road,Doncaster,,S Yorkshire,,DN2 5BE,53.52773285,-1.120106101,Q51,South Yorkshire And Bassetlaw Area Team,01302 327275,,,
6114,V02862,Dentists,UNKNOWN,Visible,TRUE,Mr. C. E. P. Eves,103 Thorne Road,Doncaster,S Yorkshire,,,DN2 5BE,53.52773285,-1.120106101,Q51,South Yorkshire And Bassetlaw Area Team,01302 327275,,,
6116,V07654,Dentists,UNKNOWN,Visible,TRUE,Longsight Dental Practice ,7 Slade Lane,Longsight,Manchester,,,M13 0QJ,53.45285797,-2.196594477,Q46,Greater Manchester Area Team,0161 257 3839,,,
6118,V06191,Dentists,UNKNOWN,Visible,TRUE,The Dental Practice,569 Cheetham Hill Road,Cheetham Hill,,Manchester,,M8 9JE,53.51147461,-2.244953632,Q46,Greater Manchester Area Team,0161 740 3000,,,
6119,V05236,Dentists,UNKNOWN,Visible,TRUE,Fresh Dental Health care LTD,3 Collingwood Road,Townstal,,Dartmouth,,TQ6 9JY,50.35126495,-3.596920967,Q66,Devon,,,,
6120,V06694,Dentists,UNKNOWN,Visible,TRUE,Pure Dental Care,21 High Street,,,Totnes,,TQ9 5NP,50.43183136,-3.689323902,Q66,Devon,,,,
6121,V06752,Dentists,UNKNOWN,Visible,TRUE,mydentist,,,,,,,,,,,,,,
6122,V09129,Dentists,UNKNOWN,Visible,TRUE,Community Dental Service,Castle Circus Health Centre,Abbey Road,,Torquay,,TQ2 5YH,50.46763229,-3.533609629,Q66,Devon,,,,
6123,V04428,Dentists,UNKNOWN,Visible,TRUE,Ingrid Cubbon Dental Surgery,13 Dendy Road,13 Dendy Road,,Paignton,Devon,TQ4 5DB,50.43624115,-3.566419125,Q66,Devon,,,,
6124,DE_5D*^002__000002_NE263SJ,Dentists,UNKNOWN,Visible,TRUE,Miss K L Davies,44 Ilfracombe Gardens,,Whitley Bay,Tyne and Wear,,NE26 3SJ,55.046875,-1.453468442,Q49,Cumbria,,,,
6125,V08394,Dentists,UNKNOWN,Visible,TRUE,Dental Practice (Mr J Hartley),6 North Street,Crowland,,Peterborough,,PE6 0EF,52.67725754,-0.169719219,Q59,Leicestershire And Lincolnshire Area Team,01733 210224,,,
6126,V07779,Dentists,UNKNOWN,Visible,TRUE,The Dental Surgery,Half Moon Lane,Wigton,,Cumbria,,CA7 9BF,54.82398224,-3.16131568,Q49,Cumbria,,,,
6127,V01700,Dentists,UNKNOWN,Visible,TRUE,Fawdon Dental Practice,1 Station Cottages,Fawdon,,Newcastle Upon Tyne,,NE3 2RJ,55.01378632,-1.644464374,Q49,Cumbria,,,,
6128,V13936,Dentists,UNKNOWN,Visible,TRUE,Genix Healthcare Limited,Genix Healthcare,271-275 Whitley Road,,Whitley Bay,,NE26 2SS,55.0420723,-1.444848657,Q49,Cumbria,,,,
6129,V01600,Dentists,UNKNOWN,Visible,TRUE,IDH Dental,Killingworth Dental Practice,,Citadel East,Killingworth,Tyne and Wear,NE12 6HS,55.03718567,-1.56433332,Q49,Cumbria,,,,
6130,V01271,Dentists,UNKNOWN,Visible,TRUE,mydentist,,,,,,,,,,,,,,
6132,V06796,Dentists,UNKNOWN,Visible,FALSE,Central Ortho,16 Ankerside Shopping Centre George Street,Tamworth,Staffs,,,B79 7LQ,52.6326561,-1.693369508,Q60,Shropshire And Staffordshire Area Team,01827 61349,,,01827 64186
6133,V12970,Dentists,UNKNOWN,Visible,TRUE,mydentist,,,,,,,,,,,,,,
6134,V13276,Dentists,UNKNOWN,Visible,TRUE,Fairfield Medical Centre,Alpha Dental Studio,Wellburn Road,Fairfield,Stockton On Tees,,TS19 7PP,54.56609726,-1.360793591,Q45,Durham,,,,
6135,V08885,Dentists,UNKNOWN,Visible,TRUE,North Yorkshire Dental care,31-33 Monkgate,,,YORK,North Yorkshire,YO31 7WA,53.96398163,-1.076757312,Q50,North Yorkshire And Humber Area Team,01904 725422,,http://www.hdft.nhs.uk,
6136,V08743,Dentists,UNKNOWN,Visible,TRUE,North Yorkshire Dental Care,Haxby and Wigginton Health Centre,The Village,Wigginton,YORK,North Yorkshire,YO32 2LL,54.01935196,-1.082049251,Q50,North Yorkshire And Humber Area Team,01904 724687,,http://www.hdft.nhs.uk,
6137,DE_5E2004__000001_YO84AN,Dentists,UNKNOWN,Visible,TRUE,North Yorkshire Dental Care,Dental Department,Selby War Memorial Hospital,Doncaster Road,Selby,North Yorkshire,YO8 9BX,53.77746964,-1.078487396,Q50,North Yorkshire And Humber Area Team,01904 724293,,,
6138,V08744,Dentists,UNKNOWN,Visible,TRUE,North Yorkshire Dental Care,Cornlands Road,,,YORK,North Yorkshire,YO24 3WY,53.94907379,-1.129212856,Q50,North Yorkshire And Humber Area Team,01904 724202,,http://www.hdft.nhs.uk,01904 790715
6139,V08742,Dentists,UNKNOWN,Visible,TRUE,North Yorkshire Dental Care,Tanghall Health Centre,Fifth Avenue,Tanghall,YORK,North Yorkshire,YO31 0PR,53.96045303,-1.049797058,Q50,North Yorkshire And Humber Area Team,01904 724336,,http://www.hdft.nhs.uk,
6140,V11576,Dentists,UNKNOWN,Visible,TRUE,City Health Dental - Driffield,8 Market Place,Driffield,N Humberside,,,YO25 6AP,54.00509644,-0.43961224,Q50,North Yorkshire And Humber Area Team,01377 208360,,www.cityhealthdental.co.uk,
6141,V04880,Dentists,UNKNOWN,Visible,TRUE,Dr A Mohagh,237 Beverley Road,Hull,,N Humberside,,HU5 2UT,53.7580986,-0.349318653,Q50,North Yorkshire And Humber Area Team,01482 441027,,,
6142,V03401,Dentists,UNKNOWN,Visible,TRUE,Daybrook Dental Care,88 Mansfield Road,Daybrook,Nottingham,Nottinghamshire,,NG5 6GY,53.0026474,-1.139012694,Q55,Derbyshire And Nottinghamshire Area Team,0115 9265822,,,
6143,V04773,Dentists,UNKNOWN,Visible,TRUE,Ditchfield Dental ,49 Fairfax Road,,Market Harborough,Leics,,LE16 9JU,52.46970367,-0.922917366,Q59,Leicestershire And Lincolnshire Area Team,01858 466663,,,
6144,DE_5EH002__000001_LE8OLQ,Dentists,UNKNOWN,Visible,TRUE,Kibworth Dental Practice,7 Weir Road,,Kibworth,Leics,,LE8 0LQ,52.53521729,-0.993542194,Q59,Leicestershire And Lincolnshire Area Team,0116 279 6565,info@kibworthdp.co.uk,http://www.kibworthdp.co.uk,
6145,V03672,Dentists,UNKNOWN,Visible,TRUE,Sneinton Family Dental Centre,Sneinton Family Dental Centre,2 Colwick Road,Sneinton,Nottingham,Nottinghamshire,NG2 4BU,52.94939041,-1.127136588,Q55,Derbyshire And Nottinghamshire Area Team,0115 9242526,thesneintonfdc@nationwidehealthcare.co.uk,,0115 9584963
6146,DE_5EM993__000001_NG24LA,Dentists,UNKNOWN,Visible,TRUE,Integrated Dental Unit,Nottingham Walk In Centre,Seaton House,City Link,London Road,Nottinghamshire,NG2 4LA,52.94941711,-1.138254046,Q55,Derbyshire And Nottinghamshire Area Team,1158838500,,,
6147,V00191,Dentists,UNKNOWN,Visible,TRUE,Seven Dental,Seven Dental,69 - 75 Radford Road,Hyson Green,Nottingham,,NG7 5DR,52.96413422,-1.169867516,Q55,Derbyshire And Nottinghamshire Area Team,0115 9700007,thepracticemanager@7dental.co.uk,http://www.7dental.co.uk,0115 9791929
6148,V03649,Dentists,UNKNOWN,Visible,TRUE,Pedmore Valley Dental Practice,157 Pedmore Valley,Nottingham,,Notts,,NG5 5NX,53.00195313,-1.159843922,Q55,Derbyshire And Nottinghamshire Area Team,0115 967 6555,,,0115 926 6800
6149,V04126,Dentists,UNKNOWN,Visible,TRUE,Derwent Valley Dental,22 St Marks Road,Derby,,Derbyshire,,DE21 6AH,52.92663574,-1.457919598,Q55,Derbyshire And Nottinghamshire Area Team,01332 202102,,,
6150,V06554,Dentists,UNKNOWN,Visible,TRUE,Patel,,,,,,,,,,,,,,
6152,V08318,Dentists,UNKNOWN,Visible,TRUE,Central Park Dental Practice Ltd,Central Park Dental Practice Ltd,15 Milehouse Road,,Plymouth,Devon,PL3 4AD,50.38476181,-4.158601761,Q66,Devon,,,,
6153,DE_5F1007__000001_PL52ST,Dentists,UNKNOWN,Visible,FALSE,PCT Dental Access Centre,1a Baring Street,Greenbank,Plymouth,Devon,,PL4 8NF,50.37537766,-4.131143093,Q66,Devon,,,,
6154,V05365,Dentists,UNKNOWN,Visible,TRUE,Station Dental Practice,Station Dental Practice,9-10 Golden Hill,Leyland,Preston,Lancashire,PR25 3NN,53.69796371,-2.689126015,Q47,Lancashire Area Team,01772 458855,stationdental@soegateway.com,http://stationdentalpractice.com/,
6155,V02776,Dentists,UNKNOWN,Visible,TRUE,Shimberg S,4 The Packet House and Steps,Barton Road,Worsley,Manchester,,M28 2PB,53.49990082,-2.38130188,Q46,Greater Manchester Area Team,0161 727 9119,,http://bridgewaterdentalsurgery.com/blog/orthodontics/,
6156,V02838,Dentists,UNKNOWN,Visible,TRUE,Whitehouse Dental Practice,11 Ack Lane East,Bramhall,,Stockport,,SK7 2BE,53.35866928,-2.167732477,Q46,Greater Manchester Area Team,0161 439 4842,dentistryatwhdp@gmail.com,,
6157,V02840,Dentists,UNKNOWN,Visible,TRUE,Cheadle Smile Centre,145a Councillor Lane,Cheadle,,Stockport,Cheshire,SK8 2JE,53.39108658,-2.19412899,Q46,Greater Manchester Area Team,0161 428 7226,,,
6158,V03262,Dentists,UNKNOWN,Visible,TRUE,The Ivy Dental Practice,The Ivy Dental Practice,161 Wellington Road South,,Stockport,Cheshire,SK1 3UA,53.40231323,-2.156292915,Q46,Greater Manchester Area Team,0161 480 2913,ivydental@sky.com,http://www.theivydentalpractice.co.uk,
6159,V07957,Dentists,UNKNOWN,Visible,TRUE,Church Road Dental Practice,66 Church Road,Bebington,,Wirral,,CH63 3EB,53.34623718,-3.004057884,Q44,Cheshire,,,,
6160,V01930,Dentists,UNKNOWN,Visible,TRUE,TSA Dental Care,5 Davies Road,West Bridgford,,Nottingham,,NG2 5JE,52.93130112,-1.123305082,Q55,Derbyshire And Nottinghamshire Area Team,0115 981 0012,,,
6161,V00281,Dentists,UNKNOWN,Visible,TRUE,Allington Dental Care,...,5 West Allington,,BRIDPORT,Dorset,DT6 5BJ,50.73428345,-2.763899326,Q70,Wessex Area Team,01308 421919,reception.allington@southerndental.co.uk,http://www.southerndental.co.uk,01308 421717
6162,V01028,Dentists,UNKNOWN,Visible,TRUE,The Bridges Dental Practice,,23 Gloucester Street,,WEYMOUTH,Dorset,DT4 7AW,50.61316299,-2.455459356,Q70,Wessex Area Team,1305783062,wykeregis-pm@idhgroup.co.uk,http://idhgroup.co.uk/,1305788475
6163,V05252,Dentists,UNKNOWN,Visible,TRUE,Castle Hill Dental Practice,Castle Hill Dental Practice,Castle Hill Gardens,,Great Torrington,Devon,EX38 8EL,50.95200348,-4.140162945,Q66,Devon,,,,
6164,V06363,Dentists,UNKNOWN,Visible,TRUE,Barnbrook Dental Practice,25 Denmark Road,,,Exeter,,EX1 1SL,50.72375488,-3.521031857,Q66,Devon,,,,
6165,V00983,Dentists,UNKNOWN,Visible,TRUE,Moretonhampstead Dental Practice,3 Court Street,,,Moretonhampstead,,TQ13 8NE,50.66051483,-3.766296387,Q66,Devon,,,,
6166,V00980,Dentists,UNKNOWN,Visible,TRUE,Ingleby Dental Practice,42 High Street,,,Cullompton,,EX15 1AE,50.85861588,-3.392637491,Q66,Devon,,,,
6167,DE_5FWMINX__000001_TA245BN,Dentists,UNKNOWN,Visible,TRUE,Minehead Dental Access Centre,,Stephenson Road,,Minehead,Somerset,TA24 5EB,51.20072556,-3.464350939,Q65,Bristol,,,,
6168,V22378,Dentists,UNKNOWN,Visible,TRUE,Frome Dental Access Centre,Frome Enterprise Resource Centre,Manor Road,,Frome,Somerset,BA11 4BS,51.22289276,-2.32712245,Q65,Bristol,,,,
6169,V00787,Dentists,UNKNOWN,Visible,TRUE,Carling Dental Practice,1 Ashley House,The Broadway,Farnham Common,Buckinghamshire,,SL2 3PQ,51.55509567,-0.615678668,Q69,Thames Valley Area Team,01753 647359,carlingdentalpractice@btconnect.com,http://www.carlingdental.co.uk/,01753 644181
6171,V09255,Dentists,UNKNOWN,Visible,FALSE,Baxenden Dental Practice,522 Manchester Road,Accrington,Lancs,,,BB5 2RG,53.73275375,-2.343737841,Q47,Lancashire Area Team,01254 236794,,,01254 385825
6172,V07879,Dentists,UNKNOWN,Visible,TRUE,Rossendale Dental Health Centre,124 Burnley Road,Rawtenstall,,Lancs,,BB4 8HH,53.70898056,-2.289489508,Q47,Lancashire Area Team,01706 836130,,,
6173,V03892,Dentists,UNKNOWN,Visible,TRUE,Muirhead Dental Practice,50 Muirhead Avenue East,Norris Green,,Liverpool,Merseyside,L11 1EL,53.43795776,-2.913653851,Q48,Merseyside Area Team,0151 256 9504,muirheaddentalpractice@hotmail.co.uk,,0151 256 9505
6174,V02620,Dentists,UNKNOWN,Visible,TRUE,Sharing Smiles,54 Alma Street,Luton,Beds,,,LU1 2PL,51.88041687,-0.419351548,Q58,Hertfordshire And The South Midlands Area Team,01582 877108,,,
6175,V05602,Dentists,UNKNOWN,Visible,TRUE,mydentist,,,,,,,,,,,,,,
6176,V00187,Dentists,UNKNOWN,Visible,TRUE,Dental Care Centre,Bedford Health Village,3 Kimbolton Road,Bedford,Beds,,MK40 2NT,52.14099503,-0.459243745,Q58,Hertfordshire And The South Midlands Area Team,01234 310210,,http://www.communitydentalservices.co.uk,01234 310200
6177,V09137,Dentists,UNKNOWN,Visible,TRUE,De-ientes,28 Lurke Street,Bedford,,Beds,Bedfordshire,MK40 3HU,52.13836288,-0.464098305,Q58,Hertfordshire And The South Midlands Area Team,01234 263050,info@de-ientes.co.uk,http://www.de-ientes.co.uk,
6178,V06459,Dentists,UNKNOWN,Visible,TRUE,Kimbolton Dental Surgery,6 Kimbolton Road,Bedford,Beds,,,MK40 2NR,52.14019394,-0.462661594,Q58,Hertfordshire And The South Midlands Area Team,01234 355966,,http://www.kimboltondentalpractice.co.uk,
6179,V01405,Dentists,UNKNOWN,Visible,TRUE,Queensbury Dental Practice,66 Langdale Road,Dunstable,,Beds,,LU6 3BS,51.87805557,-0.519923747,Q58,Hertfordshire And The South Midlands Area Team,01582 605184,,,
6180,V06149,Dentists,UNKNOWN,Visible,FALSE,Woodhall Dental Practice,33 Cole Green Lane,,Welwyn Garden City,Herts,,AL7 3PP,51.79167938,-0.194219738,Q58,Hertfordshire And The South Midlands Area Team,01707 375000,,,
6181,V06105,Dentists,UNKNOWN,Visible,TRUE,Ivory Dental Clinic,10 Fretherne Chambers,Fretherne Road,,Welwyn Garden City,,AL8 6NY,51.80099106,-0.206175789,Q58,Hertfordshire And The South Midlands Area Team,01707 328008,,http://www.ivorydentalclinic.co.uk,
6183,V06210,Dentists,UNKNOWN,Visible,FALSE,Hitchin Dental Centre,49 Ninesprings Way,,Hitchin,Herts,,SG4 9NR,51.94237137,-0.259697497,Q58,Hertfordshire And The South Midlands Area Team,01462 641111,,,
6184,V01487,Dentists,UNKNOWN,Visible,FALSE,Cherry Tree Dental Care,52a Flamstead End Road,,Cheshunt,Herts,,EN8 0HX,51.71260834,-5.00E-02,Q58,Hertfordshire And The South Midlands Area Team,01992 626137,,,01922 631094
6185,V01453,Dentists,UNKNOWN,Visible,TRUE,Herts Orthodontics,3 St Marys Courtyard,Church Street,,Ware,Hertfordshire,SG12 9EF,51.81224823,-3.37E-02,Q58,Hertfordshire And The South Midlands Area Team,01920 411066,info@hertsorthodontics.com,http://www.hertsorthodontics.com,01920 411 060
6186,V11247,Dentists,UNKNOWN,Visible,TRUE,Priory Dental Centre,17 Queens Road,,Royston,Herts,,SG8 7AN,52.05312347,-0.023098148,Q58,Hertfordshire And The South Midlands Area Team,01763 246677,,,
6187,V01571,Dentists,UNKNOWN,Visible,TRUE,Limes [The] - Orthodontic Practice,30 Stansted Road,,Bishop's Stortford,Herts,,CM23 2DX,51.8702507,0.167403862,Q58,Hertfordshire And The South Midlands Area Team,01279 758210,,,
6188,V01581,Dentists,UNKNOWN,Visible,TRUE,Sawbridgeworth Dental Practice,Townsend House,99 London Road,,Sawbridgeworth,Hertfordshire,CM21 9JJ,51.81488037,0.147959039,Q58,Hertfordshire And The South Midlands Area Team,01279 724121,,http://www.sawbridgeworthdentalpractice.com,
6189,V04585,Dentists,UNKNOWN,Visible,TRUE,Evergreen Dentistry,294 London Road,Stanway,Colchester,Essex,,CO3 8PB,51.8850708,0.823432505,Q57,Essex Area Team,01206 213746,,,
6190,V01786,Dentists,UNKNOWN,Visible,TRUE,Patient First Dental Practice,28 London Road,,,Grays,,RM17 5XY,51.47838593,0.32136482,Q57,Essex Area Team,01375 396264,,http://www.patientfirstdentalpractice.co.uk ,01375 396265
6191,V01788,Dentists,UNKNOWN,Visible,TRUE,Barbara Hellyar Dental Surgery,Darenth Lane,,South Ockendon,Essex,,RM15 5LP,51.50824356,0.282876462,Q57,Essex Area Team,01708 853296,,,
6192,V08004,Dentists,UNKNOWN,Visible,TRUE,Leverstock Green Dental Practice,17 Village Centre,,,Leverstock Green,,HP3 8QG,51.74825668,-0.431617528,Q58,Hertfordshire And The South Midlands Area Team,01442 213836,,,
6193,V04642,Dentists,UNKNOWN,Visible,TRUE,Osibodu Mrs O & Associate,High Oaks Dental Practice,26 High Oaks,,St Albans,Hertfordshire,AL3 6DL,51.77059555,-0.339859664,Q58,Hertfordshire And The South Midlands Area Team,01727 893430,info@highoaksdental.com,http://www.highoaksdentalpractice.com,
6194,V06297,Dentists,UNKNOWN,Visible,FALSE,Marford Road Dental Practice,34 Marford Road,,Wheathampstead,Herts,,AL4 8AS,51.81060028,-0.290614039,Q58,Hertfordshire And The South Midlands Area Team,01582 833408,,http://marfordroaddental.co.uk,
6195,V04505,Dentists,UNKNOWN,Visible,TRUE,St. Clements Dental Care ,60 Fulham Palace Road,Hammersmith,,London,,W6 9PH,51.49041367,-0.223736718,Q71,London Area Team,020 8741 4777,hammersmith@stclementsdental.co.uk,http://www.stclementsdental.co.uk,
6196,V04538,Dentists,UNKNOWN,Visible,TRUE,Perfect Smile Dental Surgery ,,247 Munster Road,Fulham,London,,SW6 6BS,51.48085785,-0.212860212,Q71,London Area Team,020 7381 4455,fulham@perfectsmile-dental.com,http://www.perfectsmile-dental.com,020 7381 4455
6197,V04109,Dentists,UNKNOWN,Visible,TRUE,Hughes,60 Thames Road,Chiswick,Middlesex,London,,W4 3RE,51.48644638,-0.280409724,Q71,London Area Team,020 8995 0298,,http://strandonthegreendental.com,
6198,V06025,Dentists,UNKNOWN,Visible,TRUE,Oaklands Dental Practice,5 Nantwich Road,Tarporley,Cheshire,Tarporley,,CW6 9UN,53.15296555,-2.666626692,Q44,Cheshire,,,,
6200,V08496,Dentists,UNKNOWN,Visible,TRUE,Delph Dental Practice,3 The Delph Centre,Market Street,Derbyshire,Swadlincote,Derbyshire,DE11 9DA,52.77383804,-1.558570862,Q55,Derbyshire And Nottinghamshire Area Team,01283 222499,delphdental@kdsconnect.com,http://www.delphdental.co.uk,01283 226738
6201,V03779,Dentists,UNKNOWN,Visible,TRUE,The Orthodontic Practice,84 Rodney Street,Liverpool,,Merseyside,,L1 9AR,53.39962769,-2.974196434,Q48,Merseyside Area Team,0151 709 1980,,,
6202,V03815,Dentists,UNKNOWN,Visible,TRUE,Mr S A Chu & Associates,Dental Surgery 135b,Queens Drive,,West Derby,,L13 0AB,53.43377686,-2.925621033,Q48,Merseyside Area Team,0151 226 3703,,,
6203,V03903,Dentists,UNKNOWN,Visible,TRUE,Mr M Al-Sharkawi,106-108 Childwall Priory Road,Liverpool,,Merseyside,,L16 7PF,53.3948822,-2.892293453,Q48,Merseyside Area Team,0151 722 3000,,http://www.gentledentalcare.co.uk,
6204,V01885,Dentists,UNKNOWN,Visible,FALSE,The Beeches Orthodontic Practice,114 Watling Street Road,Fulwood,Preston,Lancs,,PR2 8AH,53.7786026,-2.689996004,Q47,Lancashire Area Team,01772 705511,,,01772 702690
6205,DE_5HE25__000001_PR42NP,Dentists,UNKNOWN,Visible,FALSE,Wrea Green Dental Practice,19 Ribby Road,Wrea Green,Preston,Lancs,,PR4 2NB,53.77711868,-2.91431427,Q47,Lancashire Area Team,01772 673360,,,
6206,V12825,Dentists,UNKNOWN,Visible,TRUE,Ravat & Ray Dental Care,Pemberton Health Centre,Sherwood Drive,Pemberton,Wigan,Lancashire,WN5 9QX,53.53824234,-2.669784069,Q46,Greater Manchester Area Team,01942 481929,pemberton@ravatandray.com,http://www.ravatandray.com,
6207,V07348,Dentists,UNKNOWN,Visible,TRUE,Mr A H Bell,Tyldesley Dental Surgery,219 Elliott Street,Tyldesley,Manchester,,M29 8DG,53.51422119,-2.463708639,Q46,Greater Manchester Area Team,01942 882151,,,
6208,V07457,Dentists,UNKNOWN,Visible,TRUE,Hindley Dental Practice,1-5 Ladies Lane,Hindley,,Wigan,Lancashire,WN2 2QA,53.53845215,-2.576446533,Q46,Greater Manchester Area Team,01942 255315,hindleydental@gmail.com,,01942 255315
6209,V04058,Dentists,UNKNOWN,Visible,TRUE,South Road Dental Practice,15 South Road,Norton,,Stourbridge,West Midlands,DY8 3XZ,52.45072937,-2.15320611,Q54,Birmingham And The Black Country Area Team,01384 374374,info@southroaddentalpractice.co.uk,,
6210,V03538,Dentists,UNKNOWN,Visible,TRUE,Highview Dental Clinic,Highview,170 Byron Way,Northolt,Middx,,UB5 6BW,51.53252792,-0.383231699,Q71,London Area Team,020 8841 3555,highview@southerndental.co.uk,http://www.southerndental.co.uk/,020 8845 0727
6211,V01843,Dentists,UNKNOWN,Visible,TRUE,Oldfield Dental Practice ,150 Oldfield Lane South,Greenford,Middx,London,,UB6 9JX,51.5328064,-0.350882649,Q71,London Area Team,020 8578 8672,,http://www.oldfielddental.co.uk,
6212,V02466,Dentists,UNKNOWN,Visible,FALSE,Junction Road Dental Practice,20 Junction Road,,Ealing,,,W5 4XL,51.49580383,-0.309345484,Q71,London Area Team,020 8560 3604,,,
6213,V04088,Dentists,UNKNOWN,Visible,TRUE,Hamilton Dental Care,8 Hamilton Parade,Feltham Hill Road,Feltham,Middx,,TW13 4PJ,51.43258286,-0.418541282,Q71,London Area Team,020 8707 9088,,,
6214,V05967,Dentists,UNKNOWN,Visible,FALSE,Croft Dental Surgery,The Croft,Stockbridge Village,Liverpool,Merseyside,,L28 1NR,53.43555069,-2.86872983,Q48,Merseyside Area Team,0151 489 1298,,http://www.croftdental .co.uk,
6215,V06487,Dentists,UNKNOWN,Visible,TRUE,Bosworth Dental Ltd,York House,41 Station Road,,Market Bosworth,Warwickshire,CV13 0LT,52.623703,-1.404502273,Q59,Leicestershire And Lincolnshire Area Team,01455 290777,info@bosworthdental.co.uk,http://www.bosworthdental.com,01455 290913
6216,V06478,Dentists,UNKNOWN,Visible,TRUE,Holywell House,56 London Road,,Hinckley,Leics,,LE10 1HL,52.54059601,-1.358042598,Q59,Leicestershire And Lincolnshire Area Team,01455 234758,,,
6217,V06528,Dentists,UNKNOWN,Visible,TRUE,Ingrams Dental Practice,187 Greenhill Road,,Coalville,Leics,Leicestershire,LE67 4UF,52.72436142,-1.324195504,Q59,Leicestershire And Lincolnshire Area Team,01530 510783,reception@ingramsdp.com,http://www.ingramsdp.com,
6218,V06170,Dentists,UNKNOWN,Visible,TRUE,The Avenue Dental Practice ,20 Stewart Avenue,,Enderby,Leics,,LE19 4LN,52.58278656,-1.213454366,Q59,Leicestershire And Lincolnshire Area Team,0116 284 1977,,,
6219,V04021,Dentists,UNKNOWN,Visible,TRUE,Orthoworld,Orthoworld Cambridge,2b Milton Road,,Cambridge,Cambridgeshire,CB4 1JY,52.21521759,0.125838563,Q56,East Anglia Area Team,1223350530,cambridge@orthoworld.co.uk,https://www.mydentist.co.uk/dentists/practices/england/cambridgeshire/cambridgeshire/orthoworld-2000,1223351941
6220,V02845,Dentists,UNKNOWN,Visible,TRUE,mydentist,,,,,,,,,,,,,,
6221,V01987,Dentists,UNKNOWN,Visible,TRUE,Charnock House Dental Surgery,Charnock House,233 Chesterton Road,Cambridge,Cambs,,CB4 1AS,52.21578217,0.131369874,Q56,East Anglia Area Team,01223 350367,,http://www.cambridgedentalgroup.co.uk,
6222,V06345,Dentists,UNKNOWN,Visible,TRUE,Chequer Hall Dental Practice,Chequer Hall Dental Practice,6 Chequer Lane,,Ely,Cambridgeshire,CB7 4LN,52.39970398,0.263792753,Q56,East Anglia Area Team,1353668281,ely-pm@idhgroup.co.uk,https://www.mydentist.co.uk,
6223,V00344,Dentists,UNKNOWN,Visible,TRUE,Rushmere Dental Practice,,728 Foxhall Road,,Ipswich,Suffolk,IP4 5TE,52.04890823,1.210694909,Q56,East Anglia Area Team,01473 271966,,http://www.rushmeredentalcare.co.uk,
6224,V00028,Dentists,UNKNOWN,Visible,TRUE,Rodericks Ltd: Yeovil Dental Practice,10 Sherborne Road,Yeovil,,Somerset,,BA21 4HA,50.94260406,-2.62373662,Q65,Bristol,,,,
6225,V04463,Dentists,UNKNOWN,Visible,TRUE,Trinity House Dental Practice,17 Peter Street,Yeovil,Somerset,,,BA20 1PN,50.94091034,-2.630986929,Q65,Bristol,,,,
6226,V00240,Dentists,UNKNOWN,Visible,TRUE,ADP,,,,,,,,,,,,,,
6227,V00856,Dentists,UNKNOWN,Visible,TRUE,Orthoworld,Orthoworld Taunton,23 The Crescent,,Taunton,Somerset,TA1 4EB,51.01251602,-3.105294466,Q65,Bristol,,,,
6228,V00859,Dentists,UNKNOWN,Visible,TRUE,Wellington Dental Practice,47 High Street,Wellington,,Somerset,,TA21 8QY,50.98014832,-3.225610495,Q65,Bristol,,,,
6229,V01434,Dentists,UNKNOWN,Visible,TRUE,FALLAH,97a High Road,London,,,,NW10 2SL,51.54690933,-0.230089903,Q71,London Area Team,020 8459 6965,,,
6230,V01484,Dentists,UNKNOWN,Visible,FALSE,SAINI Mr R P,258 Ealing Road,Wembley,Middx,,,HA0 4QL,51.54353714,-0.297554225,Q71,London Area Team,0208 902 1166,,,
6231,V02181,Dentists,UNKNOWN,Visible,FALSE,Ghaffarpour Mr A,A G Dentistry,98 Chamberlayne Road,Kensal Rise,London,,NW10 3JN,51.53487778,-0.219958901,Q71,London Area Team,0208 964 2072,,,
6232,V03732,Dentists,UNKNOWN,Visible,FALSE,RASHID Mr G N,207 Kilburn High Road,London,,,,NW6 7JG,51.54210281,-0.198550105,Q71,London Area Team,0207 624 0083,,,
6233,V03271,Dentists,UNKNOWN,Visible,TRUE,DELAHAYE Mr M P,555 High Road,Wembley,Middx,,,HA0 2DW,51.5520134,-0.301132232,Q71,London Area Team,0208 902 9566,enquiries@centraldentalcare.co.uk,http://www.centraldentalcare.co.uk,
6234,V04390,Dentists,UNKNOWN,Visible,TRUE,AGHABABAEI-KACHOEI Mr A,104a Church Road,Willesden,London,,,NW10 9QH,51.54510498,-0.251965821,Q71,London Area Team,0208 459 4804,,,
6235,V02982,Dentists,UNKNOWN,Visible,TRUE,Dr Rejin Khafaf and Dr Rowand Khafaf,Rose Garden Dental Practice,280 Church Lane,,London,,NW9 8LU,51.5749321,-0.262107164,Q71,London Area Team,0208 200 5588,,,
6236,V03052,Dentists,UNKNOWN,Visible,TRUE,Stag Lane Dental Centre,21 Stag Lane,Burnt Oak,,Edgware,Middlesex,HA8 5LE,51.59972763,-0.268004835,Q71,London Area Team,020 8952 0839,info@staglanedental.co.uk,,2086173437
6237,V01576,Dentists,UNKNOWN,Visible,TRUE,Queensbury Dental Surgery,42 Queensbury Station Parade,Edgware,Middx,London,,HA8 5NN,51.59490967,-0.284661472,Q71,London Area Team,020 8952 1142,,http://www.queensburydental.co.uk/,
6238,V04015,Dentists,UNKNOWN,Visible,TRUE,Quadrant Dental Care,2 The Quadrant,Headstone Gardens,,Harrow,,HA2 6PN,51.59270096,-0.346808851,Q71,London Area Team,0208 861 3737,,http://www.harrowdentists.co.uk/,
6239,V07260,Dentists,UNKNOWN,Visible,TRUE,Harrow Weald Dental Practice,359 High Road,Harrow,,Harrow,,HA3 5EQ,51.60383987,-0.339732856,Q71,London Area Team,020 8427 8120,,,
6240,V09098,Dentists,UNKNOWN,Visible,TRUE,ORTHODONTIC GALLERY,Suite 3,,,,,,,,,,,,,
6241,V08561,Dentists,UNKNOWN,Visible,FALSE,SUMAR Mr G,197 Headstone Lane,,Harrow,,,HA2 6LX,51.59890366,-0.355781078,Q71,London Area Team,0208 428 3769,,,07939 2145 70
6242,DE_5KF^001__000004_NE84BQ,Dentists,UNKNOWN,Visible,FALSE,InDental Practice Limited,294 Old Durham Road,Deckham,Gateshead,,,NE8 4BQ,54.95055771,-1.595294356,Q49,Cumbria,,,,
6243,V01377,Dentists,UNKNOWN,Visible,TRUE,Hebburn Dental Clinic,,4 Park Road,,Hebburn,Tyne and Wear,NE31 2UL,54.97230148,-1.515889883,Q49,Cumbria,,,,
6245,V06663,Dentists,UNKNOWN,Visible,TRUE,Alpha Dental Hawes,The Health Centre,The Holme,,Hawes,,DL8 3QR,54.30428696,-2.196885109,Q50,North Yorkshire And Humber Area Team,01969 623999,studio@alphadental.co.uk,http://www.alphadental.co.uk/,
6248,V08691,Dentists,UNKNOWN,Visible,TRUE,North Yorkshire Dental Care,Orchard House,Easton Way,Colburn,Catterick Garrison,North Yorkshire,DL9 4GA,54.37922668,-1.682742715,Q50,North Yorkshire And Humber Area Team,01748 836507,,http://www.hdft.nhs.uk,
6251,V10382,Dentists,UNKNOWN,Visible,TRUE,North Yorkshire Dental Care,Kingswood House,14 Wetherby Road,,Harrogate,North Yorkshire,HG2 7SA,53.99149704,-1.51705122,Q50,North Yorkshire And Humber Area Team,01423 889745,,,01423 885381
6252,V04393,Dentists,UNKNOWN,Visible,TRUE,Mr D A Jackson Dental Surgery,18 East Street,Gargrave,Skipton,N Yorkshire,,BD23 3RS,53.9839859,-2.102302551,Q50,North Yorkshire And Humber Area Team,01756 748339,,,
6253,V14004,Dentists,UNKNOWN,Visible,TRUE,The Roberts-Harry Dental Clinic,East Parade,Harrogate,N Yorkshire,N Yorkshire,,HG1 5LB,53.9935379,-1.535834551,Q50,North Yorkshire And Humber Area Team,01423 522555,harrogate@oasisdentalcare.com,http://www.rhclinic.co.uk,01423 522573
6254,V07173,Dentists,UNKNOWN,Visible,FALSE,Old Police House Dental Surgery,Old Police House,Victoria Road,Malton,N Yorkshire,,YO17 7JJ,54.13650131,-0.800415337,Q50,North Yorkshire And Humber Area Team,01653 692771,,,
6256,V10381,Dentists,UNKNOWN,Visible,TRUE,North Yorkshire Dental Care,Malton Hospital,Middlecave Road,,MALTON,North Yorkshire,YO17 7NG,54.13714981,-0.806534648,Q50,North Yorkshire And Humber Area Team,01653 604716,,http://www.hdft.nhs.uk,
6258,V08766,Dentists,UNKNOWN,Visible,TRUE,North Yorkshire Dental Care,Whitby Hospital,Springhill,,WHITBY,North Yorkshire,YO21 1DP,54.48394012,-0.61727792,Q50,North Yorkshire And Humber Area Team,01947 824248,,http://www.hdft.nhs.uk,
6259,V12578,Dentists,UNKNOWN,Visible,TRUE,Scarborough Dental Care Ltd,43 Northstead Manor Drive,Scarborough,,N Yorkshire,,YO12 6AF,54.2910347,-0.413888216,Q50,North Yorkshire And Humber Area Team,01723 500340,,,
6260,V11063,Dentists,UNKNOWN,Visible,FALSE,Mr P G Kilker & Associates,The Rectory,,,,,,,,,,,,,
6262,V00081,Dentists,UNKNOWN,Visible,TRUE,Cleveland Orthodontics,Cleveland Orthodontics,32-36 Baker Street,,Middlesbrough,,TS1 2LH,54.57352066,-1.236570001,Q45,Durham,,,,
6263,V00083,Dentists,UNKNOWN,Visible,TRUE,Genix Healthcare,226 Linthorpe Road,,,Middlesbrough,Cleveland,TS1 3QW,54.57014465,-1.238427281,Q45,Durham,,,,
6264,V00082,Dentists,UNKNOWN,Visible,TRUE,Genix Healthcare,222 Linthorpe Road,,,Middlesbrough,,TS1 3QW,54.57014465,-1.238427281,Q45,Durham,,,,
6265,V00098,Dentists,UNKNOWN,Visible,TRUE,Select Dental Care,125-129 Borough Road,,,Middlesbrough,,TS1 3AN,54.57231522,-1.231147528,Q45,Durham,,,,
6267,V02057,Dentists,UNKNOWN,Visible,TRUE,Hartswood Dental Practice,39-41 Prices Lane,,,Reigate,Surrey,RH2 8BA,51.22280502,-0.202880844,Q68,NHS England - South (South East),01737 245693,,,01737 223211
6268,DE_5KQ002__000001_RH29HU,Dentists,UNKNOWN,Visible,TRUE,Slipshoe House Dental Surgery,Slipshoe House,Slipshoe Street,,Reigate,,RH2 9HU,51.23867798,-0.210370928,Q68,NHS England - South (South East),01737 221750,,,01737 221782
6269,V13603,Dentists,UNKNOWN,Visible,TRUE,Westbourne Dental Practice,,5a Alum Chine Road,Westbourne,BOURNEMOUTH,Dorset,BH4 8DT,50.72106934,-1.90165019,Q70,Wessex Area Team,01202 760490,,,
6270,V02557,Dentists,UNKNOWN,Visible,TRUE,mydentist,,,,,,,,,,,,,,
6271,V08294,Dentists,UNKNOWN,Visible,TRUE,Phoenix Orthodontics,,20 Clarence Street,Gloucester,Gloucestershire,Gloucestershire,GL1 1DP,51.86475372,-2.241823912,Q64,Bath,,,,
6273,DE_5L7015__000001_GU211NR,Dentists,UNKNOWN,Visible,FALSE,Braceland West Surrey Orthodontic Centre,136 Kingsway,,Woking,Surrey,,GU21 6NR,51.31391907,-0.57327348,Q68,NHS England - South (South East),01483 773300,,,
6276,V03739,Dentists,UNKNOWN,Visible,TRUE,Crescent Dental Clinic,57 Crawford Street,,London,,,W1H 1HB,51.519207,-0.163606495,Q71,London Area Team,020 7723 2255,admin@crescentdental.com,,020 7224 9219
6277,V03765,Dentists,UNKNOWN,Visible,FALSE,W9 Dental Health,176 Shirland Road,London,London,,,W9 3JE,51.52774048,-0.19794926,Q71,London Area Team,020 7289 6222,,,0207 289 6492
6278,DE_5LV001__000002_NN11JF,Dentists,UNKNOWN,Visible,TRUE,Community Dental Service,67 St Giles Street,,,Northampton,,NN1 1JF,52.23773575,-0.891592801,Q58,Hertfordshire And The South Midlands Area Team,01604 231829,,,
6279,DE_5LV002__000001_NN55LE,Dentists,UNKNOWN,Visible,TRUE,St James Dental Clinic,116 St James Road,,,Northampton,,NN5 5LQ,52.23949814,-0.915610731,Q58,Hertfordshire And The South Midlands Area Team,01604 684195,,,01604 597685
6280,V12245,Dentists,UNKNOWN,Visible,TRUE,Dental Dept,,,,,,,,,,,,,,
6281,DE_5LV005__000001_NN172VR,Dentists,UNKNOWN,Visible,TRUE,Dental Care Unit,,,,,,,,,,,,,,
6282,V07792,Dentists,UNKNOWN,Visible,TRUE,Shams Moopen Dental Practice,54-56 Kingsley Road,Northampton,,Northampton,,NN2 7BL,52.25183105,-0.881822169,Q58,Hertfordshire And The South Midlands Area Team,01604 722733,reception@shamsmoopendentalpractice.co.uk,http://www.shamsdental.com,01604 722744
6283,V01185,Dentists,UNKNOWN,Visible,TRUE,Aesthetics Dental and Implant Surgery,9 Salisbury Road,Moseley,,Birmingham,West Midlands,B13 8JS,52.44646454,-1.889771223,Q54,Birmingham And The Black Country Area Team,0121 449 1866,dentist07@hotmail.co.uk,http://www.aestheticsdental.co.uk,
6284,V01192,Dentists,UNKNOWN,Visible,TRUE,Bridge & Azmat Dental Surgery,1493 Pershore Road,Stirchley,Birmingham,,,B30 2JL,52.42565918,-1.92216146,Q54,Birmingham And The Black Country Area Team,0121 458 1939,,,
6285,V01466,Dentists,UNKNOWN,Visible,TRUE,Cadbury Dental Practice,Bournville Lane,Bournville,,Birmingham,West Midlands,B30 2LU,52.42765045,-1.931190491,Q54,Birmingham And The Black Country Area Team,0121 451 4707,reception@cadburydental.co.uk,,0121 451 4295
6286,V01197,Dentists,UNKNOWN,Visible,TRUE,Dental Practice,5 Middleton Hall Road,Kings Norton,Birmingham,,,B30 1AB,52.41482544,-1.93413353,Q54,Birmingham And The Black Country Area Team,0121 458 1368,,,
6287,V01199,Dentists,UNKNOWN,Visible,TRUE,Dental Practice,30 The Green,Kings Norton,Birmingham,,,B38 8SD,52.40690994,-1.929382563,Q54,Birmingham And The Black Country Area Team,0121 458 1362,,,
6288,V01198,Dentists,UNKNOWN,Visible,TRUE,JD Dental Surgery,110 Raddlebarn Road,Selly Oak,,Birmingham,,B29 6HH,52.43712616,-1.92877543,Q54,Birmingham And The Black Country Area Team,0121 471 3377,,,
6289,V01194,Dentists,UNKNOWN,Visible,TRUE,Station Dental Practice,61 Pershore Road South,Kings Norton,Birmingham,,,B30 3EL,52.41353607,-1.93131268,Q54,Birmingham And The Black Country Area Team,0121 458 2594,,,
6290,V01203,Dentists,UNKNOWN,Visible,TRUE,Fold Dental Surgery,38 The Fold,Kings Norton,,Birmingham,,B38 9BL,52.40194702,-1.925965786,Q54,Birmingham And The Black Country Area Team,0121 458 2330,,,
6291,V01204,Dentists,UNKNOWN,Visible,TRUE,Kings Heath Midlands Smile Centre,306 Vicarage Road,Kings Heath,,Birmingham,West Midlands,B14 7NH,52.42759705,-1.906672001,Q54,Birmingham And The Black Country Area Team,1214441928,kingsheath@thedentist.biz,http://midlandssmilecentres.co.uk/find-local-dentist-kings-heath-birmingham.php,0121 444 8050
6292,V11748,Dentists,UNKNOWN,Visible,TRUE,Midlands Smile Centres Selly Oak ,476 Bristol Road,Selly Oak,,Birmingham,,B29 6BD,52.44604492,-1.931365371,Q54,Birmingham And The Black Country Area Team,0121 414 1551,sellyoak@thedentist.biz,http://midlandssmilecentres.co.uk/find-local-dentist-selly-oak-birmingham.php,
6293,V01211,Dentists,UNKNOWN,Visible,TRUE,Oakville Dental Health Centre,968 Bristol Road,Selly Oak,Birmingham,West Midlands,,B29 6NB,52.4365654,-1.943736076,Q54,Birmingham And The Black Country Area Team,0121 472 2234,smile@oakvilledental.co.uk,http://www.oakvilledental.co.uk,
6294,V01217,Dentists,UNKNOWN,Visible,TRUE,Smiles Dental,108 High Street,Kings Heath,,Birmingham,,B14 7LG,52.43401337,-1.893170595,Q54,Birmingham And The Black Country Area Team,0121 483 4100,kingsheath@jameshull.co.uk,,0121 483 4101
6295,V01221,Dentists,UNKNOWN,Visible,TRUE,mydentist,,,,,,,,,,,,,,
6296,V01200,Dentists,UNKNOWN,Visible,TRUE,Maypole Dental Surgery,1032 Alcester Road South,Kings Heath,,Birmingham,West Midlands,B14 5NG,52.40541077,-1.887697816,Q54,Birmingham And The Black Country Area Team,0121 430 5204,maypoledental@btconnect.com,,0121 474 3669
6297,V01464,Dentists,UNKNOWN,Visible,TRUE,South Birmingham Orthodontics,681 Pershore Road,681 Pershore Road,selly Park,Birmingham,,B29 7NY,52.44366074,-1.915627241,Q54,Birmingham And The Black Country Area Team,0121 472 6001,,http://www.sborthodontics.co.uk,
6298,DE_5M1022__000001_B145HH,Dentists,UNKNOWN,Visible,TRUE,Patson Dental Suite,804 Alcester Road South,Kings Heath,Birmingham,West Midlands,,B14 5HH,52.41044617,-1.886979461,Q54,Birmingham And The Black Country Area Team,0121 430 4060,,,
6299,V01183,Dentists,UNKNOWN,Visible,TRUE,Dental Practice,Kings Heath Dental Practice,262 Alcester Road South,Kings Heath,Birmingham,,B14 6DR,52.42268753,-1.892565489,Q54,Birmingham And The Black Country Area Team,0121 444 1251,,,
6300,V07264,Dentists,UNKNOWN,Visible,TRUE,Kings Heath Dental ,31 Livingstone Road,Kings Heath,,Birmingham,,B14 6DJ,52.4229126,-1.895890355,Q54,Birmingham And The Black Country Area Team,0121 444 3356,kingsheathdental@gmail.com,,
6301,V01202,Dentists,UNKNOWN,Visible,TRUE,The Bells Lane Dental Practice,145 Bells Lane,Druids Heath,Birmingham,West Midlands,,B14 5QJ,52.40720367,-1.911903977,Q54,Birmingham And The Black Country Area Team,0121 458 5769,,,0121 458 5779
6302,V07263,Dentists,UNKNOWN,Visible,TRUE,Hollymoor Tower Dental Surgery,,Manor Park Grove,Northfield,Birmingham,,B31 5ER,52.40398026,-1.998809576,Q54,Birmingham And The Black Country Area Team,0121 453 6162,hollymoordental@tiscali.co.uk,,
6303,V01334,Dentists,UNKNOWN,Visible,TRUE,Acorn Dental Practice,208 Swanshurst Lane,Kings Heath,,Birmingham,,B13 0AW,52.43379974,-1.859561682,Q54,Birmingham And The Black Country Area Team,0121 777 1537,enquiries@aidp.co.uk,http://www.aidp.co.uk,
6304,V07072,Dentists,UNKNOWN,Visible,TRUE,Willenhall Dental Centre,Remembrance Road,Coventry,,W Midlands,,CV3 3DG,52.38773727,-1.460075021,Q53,Arden,,,,
6305,V00179,Dentists,UNKNOWN,Visible,TRUE,Brandhall Dental Care,4 Brandhall Road,Oldbury,,West Midlands,,B68 8DP,52.47896957,-2.004697561,Q54,Birmingham And The Black Country Area Team,0121 552 1333,,,
6306,V08169,Dentists,UNKNOWN,Visible,TRUE,Queens Head Dental Surgery,,340 Londonderry Road,,Oldbury,West Midlands,B68 9NB,52.48814774,-1.992710948,Q54,Birmingham And The Black Country Area Team,0121 544 1133,qhdental@yahoo.co.uk,,
