OrganisationID	OrganisationCode	OrganisationType	SubType	OrganisationName	OrganisationStatus	IsPimsManaged	Address1	Address2	Address3	City	County	Postcode	Latitude	Longitude
46946	C83036	GP practice	UNKNOWN	Gosberton Medical Centre	Visible	FALSE	Lowgate	Gosberton	Spalding	Lincs		PE11 4NL	52.86989594	-0.159450963
46947	A83023	GP practice	UNKNOWN	Stanley Medical Group	Visible	FALSE	Stanley Primary Care Centre	Clifford Road	Stanley	Stanley	Durham	DH9 0AB	54.87001419	-1.698054075
46948	A82006	GP practice	UNKNOWN	Appleby Medical Practice	Visible	FALSE	The Riverside Building	Chapel Street	Appleby in Westmorland			CA16 6QR	54.57808685	-2.492977619
46949	C81649	GP practice	UNKNOWN	Calow & Brimington Practice	Visible	FALSE	Brimington Medical Centre	Foljambe Road	Brimington	Chesterfield	Derbyshire	S43 1DD	53.25786972	-1.396106124
46950	A89005	GP practice	UNKNOWN	Villette Surgery	Visible	FALSE	Suffolk Street	Hendon	Sunderland			SR2 8AX	54.89999771	-1.372795939
46951	G85135	GP practice	UNKNOWN	The Iveagh Surgery	Visible	FALSE	Akerman Health Centre	60 Patmos Road		London		SW9 6AF	51.47553253	-0.105053164
46952	G85047	GP practice	UNKNOWN	Knights Hill Surgery	Visible	FALSE	130 Knights Hill	LONDON				SE27 0SR	51.42776489	-0.104973085
46953	P89609	GP practice	UNKNOWN	Stamford House	Visible	FALSE	2 Princess Street	Ashton under Lyne	lancs			OL6 9QH	53.49368668	-2.07865715
46954	D82024	GP practice	UNKNOWN	Beechcroft Surgery	Visible	FALSE	Ormesby Village Sur;gery	Pippin Close	Ormesby	Great Yarmouth	Norfolk	NR29 3RW	52.67471695	1.685690045
46955	M89026	GP practice	UNKNOWN	The Castle Practice	Visible	FALSE	2 Hawthorne Road	Castle Bromwich	Solihull			B36 0HH	52.50180054	-1.758626819
46956	A82012	GP practice	UNKNOWN	Brampton Medical Practice	Visible	FALSE	4 Market Place			Brampton	Cumbria	CA8 1NL	54.94236755	-2.734826088
46957	J82041	GP practice	UNKNOWN	Staunton Surgery	Visible	FALSE	Havant Health Centre	Civic Centre Way	Havant			PO9 2AT	50.85106659	-0.97800535
46958	M81010	GP practice	UNKNOWN	Forest Glades Medical Centre	Visible	FALSE	Bromsgrove Street	Kidderminster		Kidderminster		DY10 1PE	52.38837051	-2.245295048
46959	G82215	GP practice	UNKNOWN	Marden Medical Centre	Visible	FALSE	Church Green	Marden	Tonbridge	Kent		TN12 9HP	51.17414856	0.492284149
46960	J82203	GP practice	UNKNOWN	Regents Park Surgery	Visible	FALSE	Park Street	Shirley	Southampton			SO16 4RJ	50.92232895	-1.434536457
46961	F81111	GP practice	UNKNOWN	Elsenham Surgery	Visible	FALSE	Station Road	Elsenham	Bishop's Strotford	Herts		CM22 6LA	51.91579819	0.22841695
46962	L83087	GP practice	UNKNOWN	Okehampton Medical Centre	Visible	FALSE	East Street	Okehampton	Devon			EX20 1AY	50.73881149	-3.99758029
46963	G85003	GP practice	UNKNOWN	Belmont Hill Surgery	Visible	FALSE	36 Belmont Hill	London				SE13 5AY	51.46265411	-4.63E-03
46964	M81621	GP practice	UNKNOWN	Ledbury Market Surgery	Visible	FALSE	Market Street			Ledbury	Herefordshire	HR8 2AQ	52.03629684	-2.425717115
46965	M85163	GP practice	UNKNOWN	Griffins Brook Medical Centre	Visible	FALSE	119 Griffins Brook Lane	Bournville	Birmingham	UK	West Midlands	B30 1QN	52.42652893	-1.952410817
46966	G82229	GP practice	UNKNOWN	Sutton Valence Surgery	Visible	FALSE	South Lane	Sutton Valence		Maidstone	Kent	ME17 3BD	51.21160889	0.59439671
46967	G85091	GP practice	UNKNOWN	306 Medical Centre	Visible	FALSE	306 LORDSHIP LANE	LONDON				SE22 8LY	51.45074081	-0.076388307
46968	E82092	GP practice	UNKNOWN	Dolphin House Surgery	Visible	FALSE						SG12 9HJ	51.81079102	-2.98E-02
46969	P83012	GP practice	UNKNOWN	Tottington Medical Practice	Visible	FALSE	16 Market Street	Tottington		Bury	Lancashire	BL8 4AD	53.61473083	-2.341417313
46970	F86708	GP practice	UNKNOWN	Claremont Medical Centre	Visible	FALSE	Claremont Medical Centre	29-31 Claremont Road	Walthanstow	London		E17 5RJ	51.59435654	-3.38E-02
46971	H83025	GP practice	UNKNOWN	Woodside Group Practice	Visible	FALSE	3 Enmore Road	South Norwood		London		SE25 5NT	51.39293289	-6.75E-02
46972	P88604	GP practice	UNKNOWN	Lowfield Surgery	Visible	FALSE	Lowfield Surgery	5 Lowfield Road	Shaw Heath	Stockport	Cheshire	SK2 6RW	53.40012741	-2.15639019
46973	G82148	GP practice	UNKNOWN	The Surgery	Visible	FALSE	The Surgery	7 The Butchery	Sandwich	Kent		CT13 9DL	51.27605057	1.339830875
46974	P82617	GP practice	UNKNOWN	Astley-Dale Branch	Visible	FALSE	Waters Meeting health Centre	Waters Meeting Road	Bolton			BL1 8TT	53.59043503	-2.42775631
46975	G85078	GP practice	UNKNOWN	Myatts Field Medical Practice	Visible	FALSE	Akerman Health Centre	60 Patmos Road		London		SW9 6AF	51.47553253	-0.105053164
46976	P91027	GP practice	UNKNOWN	THE ALI MEDICAL PRACTICE	Visible	FALSE	Seymour Grove Health Centre	70 Seymour Grove	Old Trafford	Manchester		M16 0LW	53.45807648	-2.275730371
46977	G81097	GP practice	UNKNOWN	Manor Oak Surgery	Visible	FALSE	Horebeech Lane	Horam				TN21 0DS	50.93138885	0.24621363
46978	J82184	GP practice	UNKNOWN	Pinehill Surgery	Visible	FALSE	Pinehill Surgery	Pinehill Road		Bordon	Hampshire	GU35 0BS	51.10824966	-0.858853936
46979	P87015	GP practice	UNKNOWN	PENDLETON MEDICAL CENTRE	Visible	FALSE	PENDLETON GATEWAY	(1ST FLOOR)	1 BROADWALK	SALFORD		M6 5FX	53.48839188	-2.284683466
46980	F84653	GP practice	UNKNOWN	DR V N PATEL	Visible	FALSE	"	"	John Scott Health Centre	Green Lanes			N4 2NU	51.56820679	-9.37E-02
46981	H85076	GP practice	UNKNOWN	Stonecot Surgery	Visible	FALSE	115 Epsom Road			Sutton	Surrey	SM3 9EY	51.38663483	-0.209979758
46982	G83003	GP practice	UNKNOWN	ColdharbourHill PMS	Visible	FALSE	79 William Barefoot Drive	London				SE9 3JD	51.43207932	5.91E-02
46983	C81034	GP practice	UNKNOWN	STEWART MEDICAL CENTRE	Visible	FALSE	15 Hartington Road	Buxton	Derbyshire	Buxton	Derbyshire	SK17 6JP	53.25402069	-1.918003201
46984	G85095	GP practice	UNKNOWN	Manor Place Surgery	Visible	FALSE	1 Manor Place	London		London		SE17 3BD	51.48905563	-9.72E-02
46985	M84064	GP practice	UNKNOWN	Whitnash Medical Centre	Visible	FALSE	110 Coppice Rd	Whitnash	Warwickshire			CV31 2LT	52.26242447	-1.52590549
46986	M83011	GP practice	UNKNOWN	Werrington Village Surgery	Visible	FALSE	Ash Bank Road	Werrington		Stoke on Trent		ST9 0JS	53.02169037	-2.098008156
46987	C81046	GP practice	UNKNOWN	West Hallam Medical Centre	Visible	FALSE						DE7 6GR	52.96660614	-1.359151721
46988	N83001	GP practice	UNKNOWN	Rainbow Medical Centre	Visible	FALSE	333 Robins Lane	Sutton	St Helens	Merseyside		WA9 3PN	53.43541336	-2.70597744
46989	E85066	GP practice	UNKNOWN	The Bedford Park Surgery 	Visible	FALSE	55 South Parade	Chiswick	London			W4 5LH	51.49597931	-0.262287915
46990	Y02506	GP practice	UNKNOWN	Sheppey NHS Healthcare Centre	Visible	FALSE	Sheppey Community Hospital	Plover Road	Minster-On-Sea	Sheerness		ME12 3LT	51.41556549	0.792912543
46991	L81106	GP practice	UNKNOWN	Dr PP Male & Partners	Visible	FALSE	Eastland Road	Thornbury	Bristol	Avon		BS35 1DP	51.61289215	-2.517694712
46992	E85732	GP practice	UNKNOWN	Manor Practice	Visible	FALSE	Brentford Health Centre	Boston Manor Road	Middlesex					
46993	F83624	GP practice	UNKNOWN	Clerkenwell Medical Practice	Visible	FALSE	Finsbury Health Centre	Pine Street	London			EC1R 0LP	51.5248642	-0.108829796
46994	J81022	GP practice	UNKNOWN	West Moors Group Practice	Visible	FALSE	175 Station Road	West Moors	Ferndown	Dorset		BH22 0HX	50.82619476	-1.889674306
46995	J82084	GP practice	UNKNOWN	Bury Road Surgery	Visible	FALSE	Gosport War Memorial Hospital	Bury Road		Gosport		PO12 3PW	50.79307175	-1.14806664
46996	N82082	GP practice	UNKNOWN	ST JAMES HEALTH CENTRE	Visible	FALSE	29 GREAT GEORGE SQUARE					L1 5DZ	53.39827728	-2.979113579
46997	G82233	GP practice	UNKNOWN	St Werburgh Practice	Visible	FALSE	98 Bells Lane	Hoo		Rochester	Kent	ME3 9HU	51.42346954	0.5627653
46998	A82025	GP practice	UNKNOWN	Captain French Surgery	Visible	FALSE	The Gillinggate Centre	Gillinggate		Kendal	Cumbria	LA9 4JE	54.32344437	-2.748547554
46999	M92031	GP practice	UNKNOWN	Drs Passi & Handa	Visible	FALSE	Leicester Street Medical Centre	Leicester Street	Whitmore Reans	Wolverhampton	West Midlands	WV6 0PS	52.59488678	-2.135979414
47000	K83030	GP practice	UNKNOWN	The Cottons Medical Centre	Visible	FALSE	Meadow Lane	Raunds		Wellingborough	Northamptonshire	NN9 6UA	52.34568024	-0.547973454
47001	H84625	GP practice	UNKNOWN	Dr Kudra 	Visible	FALSE	19 Powdermill Lane	Whitton	Twickenham			TW2 6EE	51.44444275	-0.366673261
47002	C82061	GP practice	UNKNOWN	Barwell & Hollycroft Medical Centre	Visible	FALSE	Jersey Way			Barwell	Leicestershire	LE9 8HR	52.56720352	-1.348772645
47003	M85048	GP practice	UNKNOWN	Church Road Surgery	Visible	FALSE	90 Church Road	Sheldon		Birmingham		B26 3TP	52.45886993	-1.780745745
47004	B81054	GP practice	UNKNOWN	Clifton House Medical Centre	Visible	FALSE	263-265 Beverley Road			Hull	North Humberside	HU5 2ST	53.75944138	-0.349675506
47005	G83034	GP practice	UNKNOWN	ELTHAM PARK SURGERY	Visible	FALSE	46 WESTMOUNT ROAD	ELTHAM		London		SE9 1JE	51.45470047	6.10E-02
47006	J81012	GP practice	UNKNOWN	Parkstone Health Centre	Visible	FALSE	Mansfield Road	Parkstone	Poole	Dorset		BH14 0DJ	50.72844696	-1.942354202
47007	N83628	GP practice	UNKNOWN	Newton Cottage Practice 	Visible	FALSE	Newton Community Hospital	Bradlegh Road	Newton Le Willows	Merseyside		WA12 8RB	53.44602966	-2.635238409
47008	M82012	GP practice	UNKNOWN	DONNINGTON MEDICAL PRACTICE	Visible	FALSE	The Health Centre	Wrekin Drive	Donnington	Telford	Shropshire	TF2 8EA	52.71517563	-2.437110901
47009	G81076	GP practice	UNKNOWN	Saltdean & Rottingdean Medical Practice	Visible	FALSE	Grand Ocean	Longridge Avenue	Saltdean	Brighton		BN2 8BU	50.80247116	-3.59E-02
47010	F82650	GP practice	UNKNOWN	Ripple Road Medical Centre	Visible	FALSE	364-370 Ripple Road	Barking				IG11 9RS	51.5353508	9.43E-02
47011	F85072	GP practice	UNKNOWN	Grovelands & Grenoble Medical Centre 	Visible	FALSE	Main Site:	1 Grovelands Road	Palmers Green	London		N13 4RJ	51.62075806	-0.111967541
47012	G85130	GP practice	UNKNOWN	Mawbey Group Practice	Visible	FALSE	Mawbey Brough Health Centre	39 Wilcox Close	London			SW8 2UD	51.47928238	-0.125218049
47013	F81176	GP practice	UNKNOWN	North Avenue Surgery	Visible	FALSE	332 North Avenue	Southend-on-Sea	Essex			SS2 4EQ	51.5466156	0.735201061
47014	E84681	GP practice	UNKNOWN	SAVITA MEDICAL CENTRE	Visible	FALSE	48							
47015	J83038	GP practice	UNKNOWN	Kingswood Surgery	Visible	FALSE	Kingswood Avenue			Park North		SN3 2RJ	51.55626678	-1.754312396
47016	K83044	GP practice	UNKNOWN	Dr Hogg &Partners	Visible	FALSE	Wymington Road	Rushden	Northants			NN10 9EB	52.28342438	-0.596173644
47017	L83114	GP practice	UNKNOWN	Greenswood Medical	Visible	FALSE	1 Greenswood Road			Brixham	Devon	TQ5 9HN	50.38944626	-3.515483856
47018	A88008	GP practice	UNKNOWN	Trinity Medical Centre	Visible	FALSE	New George Street	South Shields			Tyne and Wear	NE33 5DU	54.98773956	-1.436784387
47019	A84021	GP practice	UNKNOWN	Infirmary Drive Medical Group	Visible	FALSE	The Consulting Rooms	Infirmary Drive	Alnwick	Northumberland		NE66 2NR	55.41046524	-1.697724581
47020	D82045	GP practice	UNKNOWN	Wymondham Medical Partnership	Visible	FALSE	Postmill Close				Wymondham	NR18 0RF	52.57217407	1.121664405
47021	M85131	GP practice	UNKNOWN	ASHTREE MEDICAL CENTRE	Visible	FALSE	1536 Pershore Road	Stirchley	 	Birmingham	West Midlands	B30 2NW	52.42424774	-1.921384573
47022	J82023	GP practice	UNKNOWN	Whiteley Surgery	Visible	FALSE	Yew Tree Drive	Whiteley		Fareham	Hampshire	PO15 7LB	50.88270187	-1.266026378
47023	L83139	GP practice	UNKNOWN	Boutport Medical Centre	Visible	FALSE	110 Boutport Street			Barnstaple	Devon	EX31 1TD	51.08256531	-4.06000185
47024	E85600	GP practice	UNKNOWN	The Willow Practice	Visible	FALSE	Maswell Park Health Centre	Hounslow Avenue	Hounslow	Middlesex		TW3 2DY	51.46112442	-0.359600008
47025	B86020	GP practice	UNKNOWN	Church Farm Close Medical Practice	Visible	FALSE	Lofthouse Surgery	2 Church Farm Close	Lofthouse	Wakefield		WF3 3SA	53.72944641	-1.495381951
47026	K81657	GP practice	UNKNOWN	Dr G.P Nelli & Partners	Visible	FALSE	Evergreen Practice	Skimped Hill Health Centre	Market Square	Bracknell	Berkshire	RG12 1LH	51.41729355	-0.752969742
47027	P88006	GP practice	UNKNOWN	Marple Cottage Surgery	Visible	FALSE	50 Church Street	Marple	Stockport	Cheshire		SK6 6BW	53.39291763	-2.061132669
47028	N82026	GP practice	UNKNOWN	PENNY LANE SURGERY	Visible	FALSE	7 SMITHDOWN PLACE			Liverpool	Merseyside	L15 9EH	53.38940811	-2.914989471
47029	K81007	GP practice	UNKNOWN	London Street Surgery 	Visible	FALSE	The Surgery	72 London Street	Reading			RG1 4SJ	51.45127869	-0.967901587
47030	Y02847	GP practice	UNKNOWN	NEMS Platform One Practice	Visible	FALSE	Station Street	Nottingham				NG2 3AJ	52.94784546	-1.146158338
47031	C81114	GP practice	UNKNOWN	Gresleydale Healthcare Centre	Visible	FALSE	Glamorgan Way	Church Gresley	Swadlincote	Derbyshire		DE11 9JT	52.76040268	-1.577304006
47032	N81055	GP practice	UNKNOWN	Watling Medical Practice	Visible	FALSE	Watling Street Medical Centre	Watling Street	Northwich	Cheshire	Cheshire	CW9 5EX	53.26023865	-2.51408267
47033	H85045	GP practice	UNKNOWN	Bridge Lane Group Practice	Visible	FALSE	20 Bridge Lane	Battersea		London		SW11 3AD	51.47423172	-0.166939527
47034	K81101	GP practice	UNKNOWN	Dr P Kumar & Partners	Visible	FALSE	Milman Road	Reading	Berkshire			RG2 0AR	51.44372559	-0.967740893
47035	H81002	GP practice	UNKNOWN	Knowle Green Medical	Visible	FALSE	Staines Health Centre	Knowle Green	Staines	Middlesex		TW18 1XD	51.42902756	-0.501104355
47036	J81625	GP practice	UNKNOWN	Denmark Road Medical Centre	Visible	FALSE	37 Denmark Road	Bournemouth				BH9 1PB	50.74692917	-1.876125813
47037	G85724	GP practice	UNKNOWN	Edith Cavell Surgery	Visible	FALSE	Edith Cavell Surgery	41 A-C Streatham Hill	London			SW2 4TP	51.44122314	-0.124402851
47038	C81108	GP practice	UNKNOWN	Melbourne & Chellaston Medical Practice	Visible	FALSE	Rowallan Way	Chellaston	Derby	Derby	Derbyshire	DE73 5BG	52.86758423	-1.449623704
47039	L83058	GP practice	UNKNOWN	Southernhay House Surgery	Visible	FALSE	30 Barnfield Road			Exeter	Devon	EX1 1RX	50.72260666	-3.523403168
47040	H82083	GP practice	UNKNOWN	Northbourne Medical Centre	Visible	FALSE	193A Upper Shoreham Road			Shoreham-by-Sea	West Sussex	BN43 6BT	50.84095383	-0.260215849
47041	Y02893	GP practice	UNKNOWN	Iridium Medical Practice	Visible	FALSE	Richmond Primary Care Centre	299 Bordesley Green East						
47042	C83650	GP practice	UNKNOWN	Wragby Surgery	Visible	FALSE	Old Grammar School Way	Wragby		Lincoln	Lincolnshire	LN8 5DA	53.28812408	-0.301570356
47043	B83055	GP practice	UNKNOWN	The Ridge Medical Practice	Visible	FALSE	The Ridge Medical Centre	Cousen Road		Bradford		BD7 3JX	53.78089905	-1.779810429
47044	Y03124	GP practice	UNKNOWN	Grange Farm Medical Centre	Visible	FALSE	17a Tremayne Road	Bilborough		Nottingham	Nottinghamshire	NG8 4HQ	52.96021271	-1.235237479
47045	K84605	GP practice	UNKNOWN	King Edward Street Practice	Visible	FALSE	9 King Edward Street	Oxford				OX1 4JA	51.75176239	-1.254362345
47046	L83084	GP practice	UNKNOWN	South Lawn Medical Practice	Visible	FALSE	South lawn Terrace	Heavitree	Exeter			EX1 2RX	50.72320938	-3.505528927
47047	J82647	GP practice	UNKNOWN	East Barn Surgery	Visible	FALSE	Great Binfields Road	Lychpit	Basingstoke	Hampshire		RG24 8TF	51.27645874	-1.057742119
47048	H82051	GP practice	UNKNOWN	Lavant Road Surgery	Visible	FALSE	8 Lavant Road			Chichester	West Sussex	PO19 5RH	50.85339355	-0.780994236
47049	Y02495	GP practice	UNKNOWN	Whitehall Medical Practice	Visible	FALSE	Whitehall	Monkmoor Road	Shrewsbury	Shropshire		SY2 6AP	52.70595551	-2.738026142
47050	P84616	GP practice	UNKNOWN	Moss Side Family Medical Practice	Visible	FALSE	34/36 St Bees Close	Moss Side	Manchester			M14 4GG	53.46014023	-2.240666628
47051	H81083	GP practice	UNKNOWN	The Moat House Surgery	Visible	FALSE	Worsted Green	Merstham	Surrey			RH1 3PN	51.25963974	-0.146293432
47052	A82037	GP practice	UNKNOWN	Silloth Group Medical Practice	Visible	FALSE	Lawn Terrace	Silloth-on-Solway	Carlisle	Cumbria		CA7 4AH	54.86973572	-3.393525839
47053	M86010	GP practice	UNKNOWN	Forrest Medical Centre	Visible	FALSE	69 Mount Street			Coventry	West Midlands	CV5 8DE	52.40699387	-1.534515619
47054	E85034	GP practice	UNKNOWN	Grosvenor House Surgery	Visible	FALSE	Grosvenor House Surgery	147 Broadway	West Ealing	London		W14 9BE	51.49673462	-0.21249868
47055	Y01851	GP practice	UNKNOWN	Victoria Medical Practice	Visible	FALSE	Dewbury Health Centre	Wellington Road		Dewsbury	West Yorkshire	WF13 1HN	53.69028091	-1.633637547
47056	P84650	GP practice	UNKNOWN	The Alexandra Practice	Visible	FALSE	365 Wilbraham Road	Whalley Range	Manchester	Greater Manchester	Lancashire	M16 8NG	53.44313812	-2.255730867
47057	B82060	GP practice	UNKNOWN	Eastgate Medical Group	Visible	FALSE	Eastgate Surgery	31b York Place	Knaresborough	North Yorkshire		HG5 0AD	54.00679779	-1.462800384
47058	B82095	GP practice	UNKNOWN	Beech Grove Medical Practice	Visible	FALSE	Acomb Health Centre	1 Beech Grove	Acomb	York		YO26 5LD	53.95633316	-1.124946952
47059	F84074	GP practice	UNKNOWN	Wordsworth Health Centre	Visible	FALSE	19 Wordsworth Avenue	Manor Park	London	London		E12 6SU	51.54152679	4.87E-02
47060	H85001	GP practice	UNKNOWN	Wandsworth Medical Centre	Visible	FALSE	Wandsworth Medical Centre	90-92 Garratt Lane	Wandsworth	London		SW18 4DD	51.45392227	-0.1925385
47061	Y02903	GP practice	UNKNOWN	West Lancashire Health Partnership	Visible	FALSE	Ormskirk District General Hospital	Wigan Road	Ormskirk			L39 2AZ	53.56453705	-2.871598005
47062	L85025	GP practice	UNKNOWN	Cranleigh Gardens Medical Centre	Visible	FALSE	Cranleigh Gardens			Bridgwater	Somerset	TA6 5JS	51.12750626	-2.995943069
47063	G81043	GP practice	UNKNOWN	Rotherfield Surgery	Visible	FALSE	Rotherfield	Crowborough	East Sussex			TN6 3QW	51.04565811	0.218666658
47064	P88044	GP practice	UNKNOWN	Bredbury Medical Centre	Visible	FALSE	1 Auburn Ave	Bredbury	Stockport	Cheshire		SK6 2AH	53.42292786	-2.114023924
47065	J82625	GP practice	UNKNOWN	Boundaries Surgery	Visible	FALSE	17 Winchester Road	Four Marks	Alton	Hampshire		GU34 5HG	51.11310959	-1.042438388
47066	H81056	GP practice	UNKNOWN	Oxted Health Centre	Visible	FALSE	10 Gresham Road			Oxted	Surrey	RH8 9AE	51.25525665	-4.53E-03
47067	F82040	GP practice	UNKNOWN	John Smith Medical Centre/ChilversMcCrea Healthcare	Visible	FALSE	John Smith House - 145-207 Bevan Avenue	Barking				IG11 9NS	51.5381012	0.110934265
47068	J82214	GP practice	UNKNOWN	Whitchurch Surgery	Visible	FALSE	Bell Street			Whitchurch	Hampshire	RG28 7AE	51.23025894	-1.340315104
47069	P82021	GP practice	UNKNOWN	Drs Kirby										
47070	G82036	GP practice	UNKNOWN	Balmoral Surgery	Visible	FALSE	Balmoral Surgery	Canada Road	Walmer	Deal	Kent	CT14 7EQ	51.21329498	1.399288535
47071	L83044	GP practice	UNKNOWN	The Blackdown Practice	Visible	FALSE	The Surgery	Station Road	Hemyock	Cullompton	Devon	EX15 3SF	50.91315079	-3.229112625
47072	P85025	GP practice	UNKNOWN	Dr Sidhu's Practice	Visible	FALSE	2 St Thomas Street South	Coppice	Oldham	Greater Manchester		OL8 1SG	53.53416824	-2.1221838
47073	B86002	GP practice	UNKNOWN	City View Medical Practice	Visible	FALSE	Beeston Hill Community Health Centre	123 Cemetery Road	Beeston	Leeds		LS11 8LH	53.77824783	-1.555754185
47074	M88002	GP practice	UNKNOWN	Smethwick Medical Centre	Visible	FALSE	Regent Street			Smethwick	West Midlands	B66 3BQ	52.49492264	-1.968127012
47075	A81007	GP practice	UNKNOWN	Bankhouse Surgery	Visible	FALSE	One Life Hartlepool	Park Road	Hartlepool			TS24 7PW	54.6823349	-1.214133978
47076	G85013	GP practice	UNKNOWN	Camberwell Green Practice	Visible	FALSE	17 Camberwell Green	London				SE5 7AF	51.47460938	-9.35E-02
47077	F83061	GP practice	UNKNOWN	The Museum Practice	Visible	FALSE	58 Great Russell Street			London		WC1B 3BA	51.51818466	-0.125811875
47078	K82009	GP practice	UNKNOWN	Stony Medical Centre	Visible	FALSE	The Health Centre	Market Square	Stony Stratford	Milton Keynes		MK11 1YA	52.05626678	-0.853179574
47079	M92627	GP practice	UNKNOWN	Dr Sharma's Practice	Visible	FALSE	Bilston Health Centre	Prouds Lane	Bilston	Wolverhampton	West Midlands	WV14 6PW	52.56845474	-2.077148199
47080	F83673	GP practice	UNKNOWN	The Medical Centre	Visible	FALSE	140 Holloway Road	London				N7 8DD	51.55093765	-0.109551728
47081	C83031	GP practice	UNKNOWN	Nettleham Medical Practice	Visible	FALSE	14 Lodge Lane	Nettleham		Lincoln	Lincolnshire	LN2 2RS	53.2628746	-0.47620818
47082	G85121	GP practice	UNKNOWN	Parkview Surgery	Visible	FALSE	186 Brownhill Road	Catford	London			SE6 1AT	51.44486237	-7.72E-03
47083	G82118	GP practice	UNKNOWN	Woodlands Health Centre	Visible	FALSE	1-7 Allington Road	Paddock Wood	Tonbridge	Kent		TN12 6AX	51.18084335	0.384810925
47084	B86044	GP practice	UNKNOWN	Ireland Wood & Horsforth Medical Practice	Visible	FALSE	Ireland Wood Surgery	Iveson Approach		Leeds	West Yorkshire	LS16 6FR	53.8465271	-1.604141474
47085	G85692	GP practice	UNKNOWN	Drs Holden										
47086	E81026	GP practice	UNKNOWN	Larkside Practice	Visible	FALSE	Churchfield Medical Centre	322 Crawley Green Road	Luton	Beds		LU2 9SB	51.89252472	-0.369152248
47087	B83033	GP practice	UNKNOWN	Kilmeny Group Medical Practice	Visible	FALSE	50 Ashbourne Road	Ingrow		Keighley	Yorkshire(West Riding)	BD21 1LA	53.85572052	-1.921046495
47088	C84002	GP practice	UNKNOWN	Church Walk Surgery	Visible	FALSE	Church Walk			Eastwood	Nottinghamshire	NG16 3BH	53.016922	-1.306353331
47089	J84012	GP practice	UNKNOWN	Tower House Surgery	Visible	FALSE	Tower House	Rink Road	Ryde	Isle of Wight		PO33 1LP	50.7277298	-1.153941631
47090	P82006	GP practice	UNKNOWN	Pike View Medical Centre	Visible	FALSE	2 Albert Street	Horwich		Bolton		BL6 7AN	53.60215378	-2.550838232
47091	M82039	GP practice	UNKNOWN	Wellington Medical Practice	Visible	FALSE	Chapel Lane	Wellington	Telford	Shropshire		TF1 1PZ	52.69984436	-2.514248133
47092	J83018	GP practice	UNKNOWN	The Avenue Surgery	Visible	FALSE	14-16 The Avenue			Warminster	Wiltshire	BA12 9AA	51.20637131	-2.178507805
47093	H82021	GP practice	UNKNOWN	Arundel Surgery	Visible	FALSE	Green Lane Close		West Sussex	Arundel	West Sussex	BN18 9HG	50.85288239	-0.567254186
47094	K83039	GP practice	UNKNOWN	Dryland Surgery	Visible	FALSE								
47095	P84635	GP practice	UNKNOWN	The Whitswood Practice	Visible	FALSE	Alexandra Park Health Centre	Whitswood Close		Manchester		M16 7AP	53.45578003	-2.253487587
47096	A86037	GP practice	UNKNOWN	Grainger Medical Group	Visible	FALSE								
47097	J84011	GP practice	UNKNOWN	Carisbrooke Health Centre	Visible	FALSE								
47098	F82614	GP practice	UNKNOWN	Mungo Park Surgery	Visible	FALSE	South Hornchurch Health Centre	106 Southend Road		Rainham	Essex	RM13 7XJ	51.53122711	0.191113532
47099	H81036	GP practice	UNKNOWN	Parishes Bridge Medical Practice	Visible	FALSE								
47100	L81118	GP practice	UNKNOWN	Stoke Gifford and Conygre Medical Centres	Visible	FALSE	Ratcliffe Drive	Stoke Gifford		Bristol		BS34 8UE	51.51777649	-2.546447754
47101	B83647	GP practice	UNKNOWN	Dr Sinha H K	Visible	FALSE								
47102	C81019	GP practice	UNKNOWN	ALLEN GR	Visible	FALSE								
47103	E85018	GP practice	UNKNOWN	Dr S Sood	Visible	FALSE								
47104	N85059	GP practice	UNKNOWN	THE HOYLAKE & MEOLS MEDICAL CENTRE	Visible	FALSE								
47105	F81645	GP practice	UNKNOWN	Dr M K Kamdar & Partner	Visible	FALSE								
47106	C87611	GP practice	UNKNOWN	The Surgery	Visible	FALSE								
47107	E86024	GP practice	UNKNOWN	King Edwards Medical Centre	Visible	FALSE								
47108	M84034	GP practice	UNKNOWN	Whitestone Surgery	Visible	FALSE	82 BULKINGTON LANE			NUNEATON	Warwickshire	CV11 4SB	52.49990845	-1.435648561
47109	M84038	GP practice	UNKNOWN	CAPE ROAD SURGERY	Visible	FALSE								
47110	K84008	GP practice	UNKNOWN	Dr I A Neale And Partners	Visible	FALSE	THE CHILTERN SURGERY	HILL ROAD		WATLINGTON	Oxfordshire	OX49 5AF	51.64081192	-0.994415283
47111	B83015	GP practice	UNKNOWN	Tong Medical Practice	Visible	FALSE	Highfield Health Centre	2 Proctor Street		Bradford	West Yorkshire	BD4 9QA	53.7703743	-1.716644287
47112	D81035	GP practice	UNKNOWN	58 Green End Comberton	Visible	FALSE								
47113	Y00090	GP practice	UNKNOWN	Dr Spiteri & Partners - The Doctors House	Visible	FALSE	40 Cameron Road			Ilford	Essex	IG3 8LF	51.56538773	9.42E-02
47114	P87040	GP practice	UNKNOWN	Sorrel Bank Medical Practice	Visible	FALSE	SORREL GROUP PRACTICE	23 BOLTON ROAD						
47115	K81638	GP practice	UNKNOWN	Dr Hlaing W	Visible	FALSE								
47116	H85662	GP practice	UNKNOWN	Beeches Surgery	Visible	FALSE	9 Hill Road			Carshalton Beeches	Surrey	SM5 3RB	51.35832214	-0.171283141
47117	N85037	GP practice	UNKNOWN	HEATHERLANDS MEDICAL CENTRE	Visible	FALSE								
47118	N82076	GP practice	UNKNOWN	PRINCES PARK HEALTH CENTRE	Visible	FALSE	Bentley Road	Liverpool		Merseyside		L8 0SY	53.39154053	-2.951636076
47119	Y02615	GP practice	UNKNOWN	South Birmingham Gp Walk In Centre	Visible	FALSE	15 Katie Road	Selly Oak		Birmingham		B29 6JG	52.43825531	-1.939129591
47120	A82052	GP practice	UNKNOWN	North Carlisle Medical Practice	Visible	FALSE	Eden Street			Carlisle	Cumbria	CA3 9JZ	54.91015244	-2.943048954
47121	F84088	GP practice	UNKNOWN	Plashet Medical Centre	Visible	FALSE	Plashet Medical Centre			London		E13 0QT	51.53746414	3.31E-02
47122	M81033	GP practice	UNKNOWN	Dr S P A Watson & Partners	Visible	FALSE								
47123	F81031	GP practice	UNKNOWN	The Murree Medical Centre	Visible	FALSE	201 Rectory Road	Pitsea		Basildon	Essex	SS13 1AJ	51.57811737	0.510546863
47124	P85006	GP practice	UNKNOWN	The Parks Medical Practice 	Visible	FALSE	ROYTON HLTH WELLBEING CTR	PARK STREET						
47125	C84624	GP practice	UNKNOWN	Hama Medical Centre	Visible	FALSE								
47126	D82096	GP practice	UNKNOWN	Woodcock Road Surgery	Visible	FALSE	29 Woodcock Road			Norwich	Norfolk	NR3 3UA	52.65245056	1.280928135
47127	L82042	GP practice	UNKNOWN	Dr J S Foster and Partners	Visible	FALSE	Manor Surgery	Forth Noweth		Redruth	Cornwall	TR15 1AU	50.23436737	-5.232400894
47128	L81112	GP practice	UNKNOWN	Bishopston Medical Practice 	Visible	FALSE	48-50 Logan Road	Bishopston		Bristol		BS7 8DR	51.47545242	-2.598366976
47129	N85005	GP practice	UNKNOWN	EASTHAM GROUP PRACTICE	Visible	FALSE	47 Bridle Road	Bromborough		Wirral	Merseyside	CH62 6EE	53.32230759	-2.971833229
47130	G82158	GP practice	UNKNOWN	Howell Surgery Brenchley	Visible	FALSE	Howell Surgery	High Street		Brenchley	Kent	TN12 7NQ	51.15085983	0.398837
47131	A81015	GP practice	UNKNOWN	Lagan Surgery	Visible	FALSE	20 Kirkleatham Street			Redcar	Cleveland	TS10 1TZ	54.61628342	-1.073607326
47132	P85026	GP practice	UNKNOWN	Quayside Medical Practice	Visible	FALSE	Keppel Building	Ashton Road West	Failsworth	Manchester		M35 0AD	53.50984192	-2.156734228
47133	G85125	GP practice	UNKNOWN	Park Medical Centre	Visible	FALSE								
47134	K81633	GP practice	UNKNOWN	South Reading Surgery	Visible	FALSE								
47135	K84079	GP practice	UNKNOWN	Long Furlong Medical Centre	Visible	FALSE	45 Loyd Close			Abingdon	Oxfordshire	OX14 1XR	51.68819809	-1.275124073
47136	F81103	GP practice	UNKNOWN	Greenyard Healthcare	Visible	FALSE								
47137	P84679	GP practice	UNKNOWN	Willowbank Surgery	Visible	FALSE								
47138	C84674	GP practice	UNKNOWN	WILFORD GROVE SURGERY	Visible	FALSE	55 WILFORD GROVE	MEADOWS	NOTTINGHAM	NOTTINGHAM	Nottinghamshire	NG2 2DR	52.94091034	-1.145506144
47139	B81109	GP practice	UNKNOWN	Riverside Surgery	Visible	FALSE								
47140	L83136	GP practice	UNKNOWN	Haldon House Surgery	Visible	FALSE								
47141	N82036	GP practice	UNKNOWN	NETHERLEY HEALTH CENTRE	Visible	FALSE	Middlemass Hey	Netherley 		Liverpool	Merseyside	L27 7AF	53.38832855	-2.839574814
47142	A81008	GP practice	UNKNOWN	Albert House Clinic	Visible	FALSE								
47143	C84085	GP practice	UNKNOWN	Victoria and Mapperley Practice	Visible	FALSE	858 Woodborough Road	Mapperley 		Nottingham	Nottinghamshire	NG3 5QQ	52.98200989	-1.12440908
47144	P88033	GP practice	UNKNOWN	Shaw Villa Medical Centre	Visible	FALSE								
47145	N82081	GP practice	UNKNOWN	ISLINGTON SQUARE SURGERY	Visible	FALSE								
47146	L85012	GP practice	UNKNOWN	Wellington Medical Centre 	Visible	FALSE	Wellington Medical Centre	Mantle Street		Wellington	Somerset	TA21 8BD	50.97558212	-3.233210564
47147	B81679	GP practice	UNKNOWN	Dr Clarke R G	Visible	FALSE								
47148	Y00475	GP practice	UNKNOWN	Garswood Surgery 	Visible	FALSE								
47149	M83128	GP practice	UNKNOWN	Dr Yadava & Partner	Visible	FALSE								
47150	C86609	GP practice	UNKNOWN	Auckley Surgery	Visible	FALSE	41 Ellers Lane	Auckley		Doncaster		DN9 3HY	53.50304031	-1.018291235
47151	C83062	GP practice	UNKNOWN	Church Walk Surgery	Visible	FALSE	Drury Street	Metheringham		Lincoln		LN4 3EZ	53.13799286	-0.399783313
47152	D81009	GP practice	UNKNOWN	Shelford Medical Practice	Visible	FALSE								
47153	H85112	GP practice	UNKNOWN	Vineyard Hill Road Surgery	Visible	FALSE	67 Vineyard Hill Road	Wimbledon		London 		SW19 7JL	51.43193817	-0.201102808
47154	F81619	GP practice	UNKNOWN	Sydenham House	Visible	FALSE								
47155	D83058	GP practice	UNKNOWN	Norwich Road Surgery	Visible	FALSE								
47156	C83057	GP practice	UNKNOWN	Dr Nw Bunting	Visible	FALSE								
47157	G85703	GP practice	UNKNOWN	Muirkirk Surgery	Visible	FALSE								
47158	H83624	GP practice	UNKNOWN	FAIRVIEW MEDICAL CENTRE	Visible	FALSE								
47159	J82079	GP practice	UNKNOWN	Clift Surgery	Visible	FALSE								
47160	G83005	GP practice	UNKNOWN	Cairngall Medical Practice	Visible	FALSE	2 Erith Road			Belvedere	Kent	DA17 6EZ	51.48440933	0.148768857
47161	E81031	GP practice	UNKNOWN	Great Barford Surgery	Visible	FALSE								
47162	C81043	GP practice	UNKNOWN	Rectory Road Medical Centre	Visible	FALSE								
47163	J83024	GP practice	UNKNOWN	Priory Road Medical Centre	Visible	FALSE	Priory Road	Park South		Swindon	Wiltshire	SN3 2EZ	51.55276489	-1.747783184
47164	P81210	GP practice	UNKNOWN	Park Medical Practice	Visible	FALSE	St. Annes Health Centre	Durham Avenue		St. Annes on Sea	Lancashire	FY8 2BD	53.75428009	-3.029630661
47165	E85058	GP practice	UNKNOWN	Blue Wing Family Doctor Unit	Visible	FALSE	92 Bath Road			Hounslow	Middlesex	TW3 3EL	51.46826553	-0.371740222
47166	K83017	GP practice	UNKNOWN	Wansford Surgery	Visible	FALSE	Old Hill Farm	Yarwell Road		Wansford		PE8 6PL	52.57883835	-0.42169711
47167	Y02177	GP practice	UNKNOWN	The Pier Medical Centre	Visible	FALSE								
47168	D81612	GP practice	UNKNOWN	Milton Surgery	Visible	FALSE								
47169	J82064	GP practice	UNKNOWN	Bishops Waltham Surgery	Visible	FALSE								
47170	M86015	GP practice	UNKNOWN	Kenyon Medical Centres	Visible	FALSE	108 BRANDON ROAD	BINLEY		COVENTRY	West Midlands	CV3 2JF	52.39984894	-1.443083763
47171	E84002	GP practice	UNKNOWN	Forty Willows Surgery	Visible	FALSE	46 Forty Lane			Wembley	Middlesex	HA9 9HA	51.56580353	-0.270650536
47172	D81003	GP practice	UNKNOWN	York Street Medical Practice	Visible	FALSE								
47173	Y00110	GP practice	UNKNOWN	WEST SPEKE HEALTH CENTRE 	Visible	FALSE								
47174	K82068	GP practice	UNKNOWN	Waddesdon Surgery	Visible	FALSE	WADDESDON SURGERY	GOSS AVENUE	WADDESDON	AYLESBURY	Buckinghamshire	HP18 0LY	51.84423447	-0.917700171
47175	M83033	GP practice	UNKNOWN	Dr J S Chandra	Visible	FALSE								
47176	F81649	GP practice	UNKNOWN	Dr. Mario Schembri	Visible	FALSE	Dr. Mario Schembri	Shoebury Health Centre	Campfield Road	Shoeburyness	Essex	SS3 9BX	51.52988052	0.787505746
47177	H83024	GP practice	UNKNOWN	Woodcote Medical	Visible	FALSE	32 Foxley Lane			Purley	Surrey	CR8 3EE	51.34224319	-0.126292586
47178	J83017	GP practice	UNKNOWN	Pewsey Surgery	Visible	FALSE	High Street			Pewsey	Wiltshire	SN9 5AQ	51.34009171	-1.762890577
47179	P81107	GP practice	UNKNOWN	Stonebridge Surgery	Visible	FALSE								
47180	G82154	GP practice	UNKNOWN	Dr Fernando W S B	Visible	FALSE								
47181	B83002	GP practice	UNKNOWN	Ilkley & Wharfedale Medical Practice	Visible	FALSE								
47182	P81136	GP practice	UNKNOWN	Dr A K Bisarya & Partner	Visible	FALSE								
47183	B86625	GP practice	UNKNOWN	Wetherby Surgery	Visible	FALSE	Wetherby Health Centre	Hallfield Lane		Wetherby	West Yorkshire	LS22 6JS	53.93100357	-1.378880382
47184	E81007	GP practice	UNKNOWN	Harrold Medical Practice	Visible	FALSE	Peach's Close	Harrold		Bedford	Bedfordshire	MK43 7DX	52.20256805	-0.605205417
47185	M85704	GP practice	UNKNOWN	Dr Shankernarayan M G & Dr Shanker Narayan P	Visible	FALSE								
47186	E82090	GP practice	UNKNOWN	Park Lane Surgery	Visible	FALSE								
47187	G82662	GP practice	UNKNOWN	Pencester Health	Visible	FALSE								
47188	E84075	GP practice	UNKNOWN	Harness Harrow Practice	Visible	FALSE	45c & 46 South Parade			Edgware	Middlesex	HA8 5QL	51.59765244	-0.278537273
47189	E84674	GP practice	UNKNOWN	CHICHELE ROAD SURGERY	Visible	FALSE	25 CHICHELE ROAD	CRICKLEWOOD		LONDON		NW2 3AN	51.55477524	-0.216268361
47190	C85628	GP practice	UNKNOWN	Saxena IR	Visible	FALSE								
47191	B86039	GP practice	UNKNOWN	Allerton Medical Centre	Visible	FALSE	6 Montreal Avenue			Leeds		LS7 4LF	53.82692337	-1.533879161
47192	G82074	GP practice	UNKNOWN	Bearsted Medical Practice	Visible	FALSE								
47193	Y02826	GP practice	UNKNOWN	White Horse Surgery	Visible	FALSE								
47194	F85064	GP practice	UNKNOWN	High Road Surgery										
47195	Y03134	GP practice	UNKNOWN	The Gateway Practice	Visible	FALSE	45 Scrogg Road			Newcastle upon Tyne		NE6 4EY	54.97848511	-1.555906892
47196	G84034	GP practice	UNKNOWN	DR R M GUPTA	Visible	FALSE								
47197	A83619	GP practice	UNKNOWN	Dr Mansour	Visible	FALSE								
47198	F82663	GP practice	UNKNOWN	The Surgery	Visible	FALSE								
47199	B82627	GP practice	UNKNOWN	Dr Moss & Partners	Visible	FALSE								
47200	F82013	GP practice	UNKNOWN	Western Road Medical Centre	Visible	FALSE								
47201	J84018	GP practice	UNKNOWN	Grove House SUrgery	Visible	FALSE	Grove House Surgery	102 Albert Street		Ventnor	Isle of Wight	PO38 1EU	50.59500122	-1.202324629
47202	C83073	GP practice	UNKNOWN	Cliff House Medical Practice	Visible	FALSE	82 Burton Road			Lincoln	Lincolnshire	LN1 3LJ	53.23886871	-0.54503125
47203	H82096	GP practice	UNKNOWN	The Orchard Surgery	Visible	FALSE	Penstone Park			Lancing		BN15 9AG	50.82807159	-0.324436933
47204	E81021	GP practice	UNKNOWN	Dr Khokher & Partners	Visible	FALSE	23c Carlisle Road	Queens Park		Bedford	Bedfordshire	MK40 4HR	52.13307953	-0.49243477
47205	A89624	GP practice	UNKNOWN	Dr Bhatt & Partner	Visible	FALSE								
47206	M85717	GP practice	UNKNOWN	Dr Kommalapati K	Visible	FALSE								
47207	C87022	GP practice	UNKNOWN	The Village Surgery	Visible	FALSE								
47208	M85023	GP practice	UNKNOWN	Dr Borg-Bortolo P P & Partners	Visible	FALSE								
47209	G81086	GP practice	UNKNOWN	Bird In Eye Surgery	Visible	FALSE								
47210	M82601	GP practice	UNKNOWN	Alveley Medical Practice	Visible	FALSE								
47211	Y00468	GP practice	UNKNOWN	Dr A S Adeosun 	Visible	FALSE								
47212	D81082	GP practice	UNKNOWN	Almond Road Surgery	Visible	FALSE								
47213	P81089	GP practice	UNKNOWN	The Mount View Practice	Visible	FALSE	FLEETWOOD H & WELLBEING C	DOCK STREET		FLEETWOOD		FY7 6HP	53.92098999	-3.010264635
47214	E82620	GP practice	UNKNOWN	NEWTON JE	Visible	FALSE								
47215	Y03054	GP practice	UNKNOWN	Gosbury Hill GP Clinic	Visible	FALSE								
47216	Y00049	GP practice	UNKNOWN	Dr TROUNCE	Visible	FALSE								
47217	A81057	GP practice	UNKNOWN	Kingsway Medical Centre	Visible	FALSE	Kingsway Medical Centre	Kingsway		Billingham	Cleveland	TS23 2LS	54.60646057	-1.288745761
47218	H81632	GP practice	UNKNOWN	The Orchard Surgery	Visible	FALSE	107 Felton Hill Road			Ashford	Surrey	TW15 1HH	51.43295288	-0.448250502
47219	Y00449	GP practice	UNKNOWN	Dr S Lawrence										
47220	E87755	GP practice	UNKNOWN	Ahmed [N]	Visible	FALSE	Queen's Park Health Centre	Dart Street	Queen's Park	London		W10 4LD	51.53057861	-0.207626656
47221	M83115	GP practice	UNKNOWN	Ahmad M S	Visible	FALSE								
47222	Y02625	GP practice	UNKNOWN	Care Homes Medical Practice	Visible	FALSE	Sandringham House	Windsor Street	Salford	Manchester	Lancashire	M5 4DG	53.47952271	-2.279817343
47223	K82012	GP practice	UNKNOWN	Highfield Surgery	Visible	FALSE								
47224	L84017	GP practice	UNKNOWN	Dr Hewett MF & Partners	Visible	FALSE								
47225	Y02622	GP practice	UNKNOWN	Blackfriars Medical Practice	Visible	FALSE								
47226	J81018	GP practice	UNKNOWN	Beaufort Road Practice	Visible	FALSE	21 Beaufort Road	Southbourne		Bournemouth	Dorset	BH6 5AJ	50.72816086	-1.814827085
47227	F83660	GP practice	UNKNOWN	Highbury Grange Medical Practice	Visible	FALSE								
47228	N81056	GP practice	UNKNOWN	The Medical Centre										
47229	L84606	GP practice	UNKNOWN	The College Yard and Highnam Surgery	Visible	FALSE	The College Yard Surgery	Mount Street		Gloucester	Gloucestershire	GL1 2RE	51.86922455	-2.249995708
47230	H82092	GP practice	UNKNOWN	The Village Surgery	Visible	FALSE								
47231	C87030	GP practice	UNKNOWN	Crown Street Surgery	Visible	FALSE	17 Crown Street			Swinton	South Yorkshire	S64 8NB	53.48771286	-1.314598918
47232	M87021	GP practice	UNKNOWN	Dr Paramanathan & Partner	Visible	FALSE								
47233	F81730	GP practice	UNKNOWN	Coggeshall Surgery	Visible	FALSE								
47234	M84002	GP practice	UNKNOWN	Pool Medical Centre	Visible	FALSE	Pool Road			Studley	Warwickshire	B80 7QU	52.27071381	-1.897695184
47235	B81097	GP practice	UNKNOWN	Holderness Health 	Visible	FALSE	Holderness Health Centre			hull		HU9 3JA	53.76428223	-0.292835057
47236	H81050	GP practice	UNKNOWN	Wey Family Practice	Visible	FALSE								
47237	E85731	GP practice	UNKNOWN	Family Health Practices Group	Visible	FALSE								
47238	A84042	GP practice	UNKNOWN	Dr N R Winslow & Partner	Visible	FALSE								
47239	G82021	GP practice	UNKNOWN	Dr Todd R G & Partners	Visible	FALSE								
47240	C84151	GP practice	UNKNOWN	Dr S Balendran	Visible	FALSE	The Medical Centre	2a Zulu Road	New Basford	Nottingham		NG7 7DS	52.97729111	-1.172028184
47241	J83054	GP practice	UNKNOWN	Hermitage Surgery	Visible	FALSE								
47242	E82107	GP practice	UNKNOWN	KHAN I	Visible	FALSE	The Village Surgery	283 The High Street	London Colney	St Albans		AL2 1EU	51.72624588	-0.298532575
47243	P81731	GP practice	UNKNOWN	Dr Q M Jehangir	Visible	FALSE								
47244	C83020	GP practice	UNKNOWN	Caythorpe & Ancaster Medical Practice	Visible	FALSE	Ancaster Surgery	12 Ermine Street	Ancaster	Grantham	Lincolnshire	NG32 3PP	52.98185349	-0.53631258
47245	F84624	GP practice	UNKNOWN	ABNEY HOUSE MEDICAL CENTRE	Visible	FALSE								
47246	E84051	GP practice	UNKNOWN	STANLEY CORNER MEDICAL CENTRE Dr Krotosky & Pts	Visible	FALSE	1-3 Stanley Avenue			Wembley	Middlesex	HA0 4JF	51.54424286	-0.296590477
47247	F81724	GP practice	UNKNOWN	New Westborough Surgery	Visible	FALSE	North Road PCC	183-195 North Road		Westcliff-on-sea		SS0 7AF	51.54498672	0.701884806
47248	M85097	GP practice	UNKNOWN	Cranes Park Road Surgery	Visible	FALSE	25 CRANES PARK ROAD		SHELDON	BIRMINGHAM	West Midlands	B26 3SE	52.45633316	-1.779448628
47249	B85641	GP practice	UNKNOWN	Lockwood Surgery	Visible	FALSE								
47250	H82072	GP practice	UNKNOWN	Silverdale Surgery	Visible	FALSE								
47251	E82072	GP practice	UNKNOWN	HEDGES JR	Visible	FALSE								
47252	J82062	GP practice	UNKNOWN	Shirley Avenue And Cheviot Road Practice	Visible	FALSE								
47253	C88656	GP practice	UNKNOWN	Stannington Medical Centre	Visible	FALSE								
47254	C88647	GP practice	UNKNOWN	Owlthorpe Surgery	Visible	FALSE								
47255	D82620	GP practice	UNKNOWN	Dr Harris	Visible	FALSE								
47256	G82039	GP practice	UNKNOWN	Newton Place Surgery	Visible	FALSE								
47257	C82008	GP practice	UNKNOWN	Oakmeadow Surgery	Visible	FALSE	87 Tatlow Road	Glenfield		Leicester	Leicestershire	LE3 8NF	52.63998795	-1.196690321
47258	G84028	GP practice	UNKNOWN	Dr DUNACHIE & partners	Visible	FALSE								
47259	P92649	GP practice	UNKNOWN	Shakespeare Surgery Ltd	Visible	FALSE								
47260	P88617	GP practice	UNKNOWN	Adswood Road Surgery	Visible	FALSE								
47261	G82092	GP practice	UNKNOWN	Winterton Surgery	Visible	FALSE								
47262	A83061	GP practice	UNKNOWN	Drs Neville & Waldin	Visible	FALSE								
47263	G82089	GP practice	UNKNOWN	Brewer Street Surgery	Visible	FALSE								
47264	G81073	GP practice	UNKNOWN	Mile Oak Medical Centre	Visible	FALSE	Chalky Road	Portslade		Brighton & Hove	East Sussex	BN41 2WF	50.85129547	-0.226558983
47265	N83013	GP practice	UNKNOWN	DRS KINLOCH AND MORAN	Visible	FALSE								
47266	L84047	GP practice	UNKNOWN	Churchdown Surgery	Visible	FALSE	24. St. John's Avenue	Churchdown		Gloucester		GL3 2DB	51.88655853	-2.185537577
47267	Y02719	GP practice	UNKNOWN	Smallbridge Medical Practice	Visible	FALSE								
47268	N83635	GP practice	UNKNOWN	Chana	Visible	FALSE								
47269	B81069	GP practice	UNKNOWN	Dr Harris P A And Partners	Visible	FALSE								
47270	H85695	GP practice	UNKNOWN	The Practice Furzedown	Visible	FALSE								
47271	E82082	GP practice	UNKNOWN	Birchwood Surgery	Visible	FALSE								
47272	N83057	GP practice	UNKNOWN	FAMILY HEALTH CENTRE	Visible	FALSE								
47273	A83004	GP practice	UNKNOWN	Avenue Family Practice	Visible	FALSE								
47274	A83071	GP practice	UNKNOWN	New Seaham Medical Group	Visible	FALSE	New Seaham Medical Group	Seaham Primary Care Centre	St Johns Square	Seaham	Durham	SR7 7JE	54.8358078	-1.335460186
47275	P81070	GP practice	UNKNOWN	Pendle View Medical Centre	Visible	FALSE								
47276	C82018	GP practice	UNKNOWN	Dr S.M Arolker & Partners	Visible	FALSE	Parker Drive Medical Centre	122 Parker Drive		Leicester	Leicestershire	LE4 0JF	52.65626907	-1.143052578
47277	C81059	GP practice	UNKNOWN	Ripley Medical Centre	Visible	FALSE	Derby Road			Ripley	Derbyshire	DE5 3HR	53.04721451	-1.405870318
47278	K83007	GP practice	UNKNOWN	Harborough Field Surgery	Visible	FALSE								
47279	H84043	GP practice	UNKNOWN	Crowley & Partners	Visible	FALSE								
47280	Y02321	GP practice	UNKNOWN	Intrahealth Tyldesley	Visible	FALSE								
47281	P81699	GP practice	UNKNOWN	Dr A Bhat 	Visible	FALSE								
47282	N82073	GP practice	UNKNOWN	THE ASH SURGERY	Visible	FALSE								
47283	P86608	GP practice	UNKNOWN	The Village Medical Centre	Visible	FALSE								
47284	P84056	GP practice	UNKNOWN	Princess Road Surgery	Visible	FALSE	471-475 PRINCESS ROAD	WITHINGTON		MANCHESTER	Lancashire	M20 1BH	53.44038773	-2.243595839
47285	M83043	GP practice	UNKNOWN	Anchor Medical Practice	Visible	FALSE								
47286	L85047	GP practice	UNKNOWN	Glastonbury Health Centre	Visible	FALSE	1 Wells Road			Glastonbury	Somerset	BA6 9DD	51.14873505	-2.712979078
47287	E83622	GP practice	UNKNOWN	Temple Fortune Medical Group	Visible	FALSE								
47288	B85033	GP practice	UNKNOWN	The Lindley Village Surgery	Visible	FALSE	Thomas Street	Lindley		Huddersfield	West Yorkshire	HD3 3JD	53.66133499	-1.825770736
47289	P84046	GP practice	UNKNOWN	Cheetham Hill Primary Care Centre	Visible	FALSE								
47290	F86704	GP practice	UNKNOWN	Eaa Paul	Visible	FALSE								
47291	E84709	GP practice	UNKNOWN	Wembley Park Drive Medical Centre	Visible	FALSE								
47292	P81185	GP practice	UNKNOWN	Riverside Medical Centre	Visible	FALSE								
47293	M85009	GP practice	UNKNOWN	Dr Chitre R B	Visible	FALSE	168 Hamstead Road	Handsworth		Birmingham	West Midlands	B20 2QR	52.50449753	-1.919002652
47294	P81065	GP practice	UNKNOWN	Dr I D Sangster & Partners	Visible	FALSE								
47295	D82092	GP practice	UNKNOWN	Dr Abdelmutti & Partners	Visible	FALSE								
47296	C83656	GP practice	UNKNOWN	Lincoln University Surgery	Visible	FALSE								
47297	G82730	GP practice	UNKNOWN	Dr J C Kelly & Partners	Visible	FALSE								
47298	P84074	GP practice	UNKNOWN	Wellfield Medical Centre 	Visible	FALSE	53 Crescent Road	Crumpsall		Manchester	Lancashire	M8 9JT	53.51255035	-2.241989136
47299	N83041	GP practice	UNKNOWN	Rainford Health Centre	Visible	FALSE								
47300	F84620	GP practice	UNKNOWN	Wick Health Centre	Visible	FALSE								
47301	J82182	GP practice	UNKNOWN	Canute Surgery	Visible	FALSE								
47302	F85037	GP practice	UNKNOWN	Jaina House Surgery	Visible	FALSE								
47303	Y00436	GP practice	UNKNOWN	The Ascot Medical Centre	Visible	FALSE								
47304	P81099	GP practice	UNKNOWN	Dr T H Mackenzie & Partners	Visible	FALSE								
47305	K83002	GP practice	UNKNOWN	Lakeside and Forest Gate Surgery	Visible	FALSE	THE LAKESIDE SURGERY	COTTINGHAM ROAD		CORBY	Northamptonshire	NN17 2UR	52.49023056	-0.712581575
47306	M83140	GP practice	UNKNOWN	Higherland Surgery	Visible	FALSE								
47307	J83044	GP practice	UNKNOWN	Widbrook Medical Practice	Visible	FALSE								
47308	G81048	GP practice	UNKNOWN	Carisbrooke House	Visible	FALSE								
47309	Y01690	GP practice	UNKNOWN	School Lane PMS Practice	Visible	FALSE								
47310	F86689	GP practice	UNKNOWN	The Bailey Practice	Visible	FALSE	107 Shernhall Street			Walthamstow	Essex	E17 9HS	51.58384705	-7.26E-03
47311	P81772	GP practice	UNKNOWN	North Meols Medical Centre	Visible	FALSE	Church Road	Banks		Southport	Lancashire	PR9 9RZ	53.66117096	-2.967961311
47312	M83006	GP practice	UNKNOWN	The Westgate Practice	Visible	FALSE	THE WESTGATE PRACTICE	GREENHILL HEALTH CENTRE	CHURCH STREET	LICHFIELD	Staffordshire	WS13 6JL	52.68346786	-1.821116924
47313	M82025	GP practice	UNKNOWN	Ellesmere Medical Practice	Visible	FALSE	ELLESMERE MEDICAL PRACT	TRIMPLEY STREET		ELLESMERE	Shropshire	SY12 0DB	52.90785217	-2.896479845
47314	H84036	GP practice	UNKNOWN	Lawrence J D	Visible	FALSE								
47315	Y00486	GP practice	UNKNOWN	Botolph Bridge Community Health Centre	Visible	FALSE								
47316	A81009	GP practice	UNKNOWN	Dr Waters & Partners	Visible	FALSE								
47317	Y00592	GP practice	UNKNOWN	Moss Green Surgery	Visible	FALSE	Bentilee Neighbourhood Centre	Dawlish Drive	Bentilee	Stoke on Trent		ST2 0EU	53.01356888	-2.128902912
47318	B86065	GP practice	UNKNOWN	Moor Grange Surgery	Visible	FALSE	60 Moor Grange View			LEEDS	Yorkshire(West Riding)	LS16 5BJ	53.83425903	-1.60418117
47319	G85055	GP practice	UNKNOWN	Hilly Fields Medical Centre	Visible	FALSE								
47320	G85736	GP practice	UNKNOWN	Deptford Medical Centre	Visible	FALSE	2 Pearson's Avenue	Deptford	new Cross	LONDON		SE14 6TG	51.47453308	-2.71E-02
47321	C82072	GP practice	UNKNOWN	Broom Leys Surgery	Visible	FALSE	Broom Leys Road	 		 Coalville	Leicestershire	LE67 4DE	52.72293854	-1.349876404
47322	K82029	GP practice	UNKNOWN	Cherrymead Surgery	Visible	FALSE	Queensmead Road	Loudwater		High Wycombe	Buckinghamshire	HP10 9XA	51.60852051	-0.70019722
47323	Y02622_new	GP practice	UNKNOWN	Dr B Farooq	Visible	FALSE								
47324	D81029	GP practice	UNKNOWN	Old Fletton Surgery	Visible	FALSE								
47325	M86043	GP practice	UNKNOWN	Dr JAGADESHWARI	Visible	FALSE								
47326	F84734	GP practice	UNKNOWN	Boleyn Road Practice (Dr. S Rafiq)	Visible	FALSE								
47327	M88629	GP practice	UNKNOWN	Dr Hassouna Oja	Visible	FALSE								
47328	D83018	GP practice	UNKNOWN	Market Cross Surgery	Visible	FALSE	7 Market Place	Mildenhall		BURY ST EDMUNDS	Suffolk	IP28 7EG	52.34361267	0.510181725
47329	M85679	GP practice	UNKNOWN	Charles Road Surgery	Visible	FALSE	192 Charles Road	Small Heath		Birmingham	West Midlands	B10 9AB	52.4722023	-1.850606799
47330	E85685	GP practice	UNKNOWN	Lilyville Surgery	Visible	FALSE	630 Fulham Road			London		SW6 5RS	51.47668839	-0.204166979
47331	M83666	GP practice	UNKNOWN	Bagri A K	Visible	FALSE	BELGRAVE SURGERY	108 MEDWAY		BELGRAVE		B77 2JW	52.6187706	-1.677366495
47332	C82085	GP practice	UNKNOWN	Westcotes Health Centre	Visible	FALSE	Westcotes Health Centre	Fosse Road South		Leicester		LE3 0LP	52.63156891	-1.153419852
47333	G85136	GP practice	UNKNOWN	Waterloo Health Centre	Visible	FALSE	5 Lower Marsh			London		SE1 7RJ	51.50051117	-0.113108821
47334	L83133	GP practice	UNKNOWN	Plym River Practice	Visible	FALSE	Plym River Practice	Plympton Health Centre	Mudge Way					
47335	P87613	GP practice	UNKNOWN	Cleggs Lane Medical Practice Dr Ugo Umeadi	Visible	FALSE								
47336	Y01090	GP practice	UNKNOWN	SMS MEDICAL PRACTICE DR SODHI SM	Visible	FALSE	Wembley Centre for Health and Care	1st floor	116 Chaplin Road	Wembley	Middlesex	HA0 4UZ	51.54972076	-0.306741774
47337	B86054	GP practice	UNKNOWN	The Garden Surgery 	Visible	FALSE	2ND FLOOR 	EAST LEEDS HEALTH CENTRE 	78 OSMONDTHORPE LANE 	LEEDS 		LS9 9EF	53.80022049	-1.497873306
47338	M85030	GP practice	UNKNOWN	Dr Ross and Partners	Visible	FALSE	Northfield Health Centre	15 St Heliers Road	Northfield 	Birmingham	West Midlands	B31 1QT	52.41276169	-1.975771785
47339	P86001	GP practice	UNKNOWN	Milnrow Village Practice	Visible	FALSE	44-48 New Hey Road	Milnrow		Rochdale	Lancashire			
47340	G81044	GP practice	UNKNOWN	Montpelier surgery	Visible	FALSE								
47341	C83054	GP practice	UNKNOWN	Dr Burr And Partners	Visible	FALSE	40 North Road			Bourne	Lincolnshire	PE10 9BT	52.77571869	-0.376810014
47342	G81037	GP practice	UNKNOWN	Meads Medical Centre	Visible	FALSE								
47343	G82180	GP practice	UNKNOWN	Maidstone Road Surgery	Visible	FALSE								
47344	P81170	GP practice	UNKNOWN	Nelson Medical Practice	Visible	FALSE	Yarnspinners Primary HCC	Carr Road		Nelson	Lancashire	BB9 7SR	53.83804703	-2.218835354
47345	M85735	GP practice	UNKNOWN	Greet Medical Practice	Visible	FALSE	50 Percy Road	Greet		Birmingham	West Midlands	B11 3ND	52.45319748	-1.857763648
47346	N81014	GP practice	UNKNOWN	Brookfield Surgery	Visible	FALSE	Whitbarrow Road			Lymm	Cheshire	WA13 9DB	53.38236237	-2.481171131
47347	J81612	GP practice	UNKNOWN	Corfe Castle Surgery	Visible	FALSE	Tom's Mead	West Street	Corfe Castle	Wareham	Dorset	BH20 5HH	50.63589096	-2.059407949
47348	A89625	GP practice	UNKNOWN	Maritime Surgery	Visible	FALSE								
47349	E87002	GP practice	UNKNOWN	Victoria Medical Centre	Visible	FALSE								
47350	M87619	GP practice	UNKNOWN	Dr Akufo-Tetteh Hn	Visible	FALSE								
47351	F86044	GP practice	UNKNOWN	Crawley road medical centre	Visible	FALSE	479 high road	Leyton		London		E10 5EL	51.56427383	-1.13E-02
47352	P92639	GP practice	UNKNOWN	Family Medical Practice	Visible	FALSE	Golborne Health Centre	Kidglove House	Kidglove Road	Golborne		WA3 3GS	53.47929382	-2.595729589
47353	N82650	GP practice	UNKNOWN	SPEKE HEALTH CENTRE (Dr P Choudhary  & Dr A Singh)	Visible	FALSE								
47354	K83033	GP practice	UNKNOWN	Dr Molla & Partners	Visible	FALSE								
47355	M82619	GP practice	UNKNOWN	Lawley Medical Practice	Visible	FALSE								
47356	J82650	GP practice	UNKNOWN	Middle Park Medical Centre	Visible	FALSE								
47357	A84026	GP practice	UNKNOWN	Well Close Medical Group	Visible	FALSE								
47358	N82657	GP practice	UNKNOWN	DHARMANAS FAMILY AND GENERAL PRACTICE	Visible	FALSE								
47359	M85060	GP practice	UNKNOWN	Dr Naik JR & Partners										
47360	G82019	GP practice	UNKNOWN	Edenbridge Medical Practice	Visible	FALSE								
47361	H81066	GP practice	UNKNOWN	The Grove Medical Centre	Visible	FALSE	The Grove	Church Road		Egham	Surrey	TW20 9QN	51.43088913	-0.545106232
47362	P88632	GP practice	UNKNOWN	Stockport Medical Group (Edgeley)	Visible	FALSE	STOCKPORT MEDICAL GROUP	1-3 AVONDALE RD						
47363	F81713	GP practice	UNKNOWN	Dr S S Gill	Visible	FALSE								
47364	B86052	GP practice	UNKNOWN	Park Road Medical Centre	Visible	FALSE	Park Road Surgery	44 Park Road		Guiseley	West Yorkshire	LS20 8AR	53.87175751	-1.71136713
47365	K82060	GP practice	UNKNOWN	Neath Hill Health Centre	Visible	FALSE								
47366	Y02851	GP practice	UNKNOWN	Community Eye Clinic	Visible	FALSE								
47367	K83025	GP practice	UNKNOWN	The Mounts Medical Centre	Visible	FALSE	Campbell Street	Mounts Medical Centre						
47368	K84058	GP practice	UNKNOWN	Bloxham & Hook Norton Surgery	Visible	FALSE	The Surgery	Church Street	Bloxham	Banbury	Oxfordshire	OX15 4ES	52.01809311	-1.372860789
47369	J82166	GP practice	UNKNOWN	Barton Surgery	Visible	FALSE	1 Edmunds Close			Barton-on-Sea	Hampshire	BH25 7EN	50.74586487	-1.661399961
47370	H85039	GP practice	UNKNOWN	Waterfall House	Visible	FALSE								
47371	Y02647	GP practice	UNKNOWN	Encompass 2	Visible	FALSE								
47372	J82102	GP practice	UNKNOWN	DRAYTON SURGERY	Visible	FALSE								
47373	P81196	GP practice	UNKNOWN	Dr Patel & Partners	Visible	FALSE								
47374	L83100	GP practice	UNKNOWN	Chaddlewood Surgery	Visible	FALSE	128 Bellingham Crescent							
47375	G82212	GP practice	UNKNOWN	Pilgrims Way Surgery	Visible	FALSE								
47376	C86611	GP practice	UNKNOWN	Dunsville Medical Centre	Visible	FALSE	126/128 High Street	Dunsville		Doncaster	South Yorkshire	DN7 4BY	53.56254196	-1.027815104
47377	F84660	GP practice	UNKNOWN	Dr CM Patel's Surgery	Visible	FALSE	Dr CM Patel's Surgery	2 Jephson Road		London		E7 8LZ	51.5409584	0.035412695
47378	L84039	GP practice	UNKNOWN	Dr Swindell PJ & Partners	Visible	FALSE								
47379	K81645	GP practice	UNKNOWN	Dr Sharma V	Visible	FALSE								
47380	L81637	GP practice	UNKNOWN	Grosvenor Place Surgery	Visible	FALSE								
47381	K81636	GP practice	UNKNOWN	Dr M L Swami & Partners - The Surgery	Visible	FALSE	RUSSELL STREET SURGERY	79 RUSSELL STREET		READING	Berkshire	RG1 7XG	51.45232773	-0.982874036
47382	G81642	GP practice	UNKNOWN	Ridgeway Surgery	Visible	FALSE	130 The Ridgway	Woodingdean		Brighton	East Sussex	BN2 6PB	50.8315506	-0.07050091
47383	A81058	GP practice	UNKNOWN	Coulby Medical Practice	Visible	FALSE								
47384	H81641	GP practice	UNKNOWN	College Road Surgery	Visible	FALSE	4-6 College Road 	Maybury		Woking	Surrey	GU22 8BT	51.3225975	-0.539794862
47385	Y02570	GP practice	UNKNOWN	Midway Medical Walk In Centre	Visible	FALSE	Morston House	The Midway		Newcastle-under-Lyme	Staffordshire	ST5 1QG	53.01015854	-2.227571487
47386	F81688	GP practice	UNKNOWN	Dr K J K Dhillon	Visible	FALSE								
47387	G82687	GP practice	UNKNOWN	Dr Witts S J	Visible	FALSE	Sheerness Health Centre	250-262 High Street		Sheerness	Kent	ME12 1UP	51.43613434	0.766697466
47388	N84036	GP practice	UNKNOWN	FRESHFIELD SURGERY	Visible	FALSE	61 Gores Lane	Freshfield		Formby	Merseyside	L37 3NU	53.56298065	-3.064203024
47389	L82013	GP practice	UNKNOWN	Perranporth Surgery	Visible	FALSE								
47390	N81001	GP practice	UNKNOWN	Audlem Medical Practice	Visible	FALSE	16 Cheshire Street	Audlem		Crewe	Cheshire	CW3 0AH	52.98962021	-2.508657455
47391	F86692	GP practice	UNKNOWN	Sj Mathukia	Visible	FALSE								
47392	P89026	GP practice	UNKNOWN	Grosvenor Medical Centre	Visible	FALSE	62 Grosvenor Street			Sta;ybridge	Cheshire	SK15 1RZ	53.48145676	-2.059090614
47393	B81668	GP practice	UNKNOWN	Dr E G Stryjakiewicz	Visible	FALSE								
47394	C82032	GP practice	UNKNOWN	Dr N W Osborne & Partners	Visible	FALSE								
47395	E84702	GP practice	UNKNOWN	WILLESDEN GREEN SURGERY Dr NAJIM & partner	Visible	FALSE								
47396	N83614	GP practice	UNKNOWN	Eccleston Medical Centre	Visible	FALSE	Chapel Lane	Eccleston		St Helens	Merseyside	WA10 5DA	53.45569229	-2.775287628
47397	L84080	GP practice	UNKNOWN	Dr Sivyer & Partners	Visible	FALSE	Regent Street Surgery	73 Regent Street	Stonehouse	Gloucester	Gloucestershire	GL10 2AA	51.74417114	-2.283601522
47398	C82010	GP practice	UNKNOWN	Oakham Medical Practice	Visible	FALSE	Cold Overton Road			Oakham	Rutland	LE15 6NT	52.670784	-0.737510502
47399	K82006	GP practice	UNKNOWN	Iver Medical Centre	Visible	FALSE	High Street			Iver	Buckinghamshire	SL0 9NU	51.51929092	-0.509500861
47400	L84616	GP practice	UNKNOWN	Dr Trueman & Partners	Visible	FALSE								
47401	F84122	GP practice	UNKNOWN	XX Place	Visible	FALSE								
47402	M85093	GP practice	UNKNOWN	Dr Ramarao M V	Visible	FALSE								
47403	D83061	GP practice	UNKNOWN	Wickham Market Medical Centre	Visible	FALSE								
47404	F81622	GP practice	UNKNOWN	West Road Surgery	Visible	FALSE	101 West Road	Shoeburyness		Southend-on-Sea	Essex	SS3 9DT	51.53015137	0.779923141
47405	Y00912	GP practice	UNKNOWN	Cedar House	Visible	FALSE								
47406	N85006	GP practice	UNKNOWN	Civic Medical Centre	Visible	FALSE								
47407	M85062	GP practice	UNKNOWN	Dr Sinclair A S & Partners	Visible	FALSE								
47408	P84615	GP practice	UNKNOWN	Cornbrook Medical Practice - Boundary Surgery	Visible	FALSE								
47409	B85049	GP practice	UNKNOWN	Nook Surgery	Visible	FALSE	144	Moorhill Road	Salendine Nook	Huddersfield	West Yorkshire	HD3 3XA	53.65716171	-1.843188763
47410	G82002	GP practice	UNKNOWN	St James' Surgery	Visible	FALSE	2 Harold Street			Dover	Kent	CT16 1SF	51.12850952	1.315830112
47411	M92003	GP practice	UNKNOWN	Dr SURYANI	Visible	FALSE								
47412	M89024	GP practice	UNKNOWN	GRAFTON ROAD SURGERY	Visible	FALSE								
47413	H84057	GP practice	UNKNOWN	Sarajlic A	Visible	FALSE								
47414	C83617	GP practice	UNKNOWN	Abbeyview Surgery	Visible	FALSE	Crowland Health Centre	Thorney Road	Crowland	Peterborough		PE6 0AL	52.67201233	-0.16357857
47415	J83603	GP practice	UNKNOWN	Jubilee Field Surgery	Visible	FALSE								
47416	C84047	GP practice	UNKNOWN	The Calverton Practice	Visible	FALSE	2a St Wilfrid's Square	Calverton		Nottingham	Nottinghamshire	NG14 6FP	53.03718948	-1.081876636
47417	E84005	GP practice	UNKNOWN	Kings Road Medical Centre	Visible	FALSE								
47418	M89011	GP practice	UNKNOWN	Park Surgery	Visible	FALSE								
47419	N85625	GP practice	UNKNOWN	MIRIAM MEDICAL CENTRE	Visible	FALSE								
47420	N81650	GP practice	UNKNOWN	CCA Care Partnership Chapelford	Visible	FALSE	Burtonwood Road			Warrington	Cheshire	WA5 3AN	53.39934158	-2.637219667
47421	C87612	GP practice	UNKNOWN	Surgery of Light	Visible	FALSE								
47422	G82777	GP practice	UNKNOWN	Cobtree Medical Practice	Visible	FALSE	6 Southways	North Street		Sutton Valence	Kent	ME17 3HT	51.21557236	0.591239989
47423	P82037	GP practice	UNKNOWN	Dr Agarwal & Partners	Visible	FALSE								
47424	M85085	GP practice	UNKNOWN	Dr Mayor V - Modality Partnership	Visible	FALSE								
47425	G82075	GP practice	UNKNOWN	St James Medical Centre	Visible	FALSE	11 Carlton Road			Tunbridge Wells	Kent	TN1 2HW	51.1337738	0.272560716
47426	C84646	GP practice	UNKNOWN	The Ivy Medical Group	Visible	FALSE	Lambley Lane Surgery	6 Lambley Lane	Burton Joyce	Nottingham		NG14 5BG	52.98822784	-1.042395353
47427	J83040	GP practice	UNKNOWN	White Horse Health Centre	Visible	FALSE	Mane Way	Leigh Park		Westbury	Wiltshire	BA13 3FQ	51.25271225	-2.203476191
47428	J81031	GP practice	UNKNOWN	Eagle House Practice	Visible	FALSE								
47429	D81051	GP practice	UNKNOWN	The Burwell Surgery	Visible	FALSE								
47430	F84686	GP practice	UNKNOWN	Cranwich Road Surgery	Visible	FALSE	62 Cranwich Road	Stamford Hill		London		N16 5JF	51.57367325	-8.16E-02
47431	F86700	GP practice	UNKNOWN	Kingshead Medical Practice	Visible	FALSE	178 Kings Head Hill	Chingford		London		E4 7NX	51.63568878	-0.011433349
47432	P87618	GP practice	UNKNOWN	Dr Y Loomba & Partners	Visible	FALSE	1ST FL WALKDEN GATEWAY	2 SMITH STREET	WALKDEN	MANCHESTER		M28 3EZ	53.52479553	-2.398585558
47433	M87003	GP practice	UNKNOWN	Moss Grove Surgery	Visible	FALSE	15 Moss Grove			Kingswinford	West Midlands	DY6 9HS	52.4986763	-2.169871092
47434	B87002	GP practice	UNKNOWN	Orchard Croft Medical Centre	Visible	FALSE	Orchard Croft Medical Centre	Cluntergate		Horbury		WF4 5BY	53.65995026	-1.549931526
47435	G82143	GP practice	UNKNOWN	Lowfield Medical Centre	Visible	FALSE	Lowfield Medical Centre	65-67 Lowfield Street		Dartford	Kent	DA1 1HP	51.44187164	0.215556398
47436	L83127	GP practice	UNKNOWN	NEWCOMBES SURGERY	Visible	FALSE								
47437	M88640	GP practice	UNKNOWN	Dr Kaur S	Visible	FALSE								
47438	C83025	GP practice	UNKNOWN	Dr TAM Lough and Partners	Visible	FALSE	Richmond Medical Centre	Moor Lane	North Hykeham	Lincoln		LN6 9AY	53.1870079	-0.595802426
47439	C84149	GP practice	UNKNOWN	Southview Surgery 	Visible	FALSE								
47440	K83081	GP practice	UNKNOWN	Summerlee Medical Centre	Visible	FALSE								
47441	G85065	GP practice	UNKNOWN	MOORSIDE CLINIC	Visible	FALSE	Downham Health & Leisure Centre	7 - 9 Moorside Road		Bromley	Kent	BR1 5EP	51.42679214	9.92E-03
47442	P91605	GP practice	UNKNOWN	DR B Caplan	Visible	FALSE								
47443	A84047	GP practice	UNKNOWN	Branch End Surgery	Visible	FALSE	Main Road			Stocksfield	Northumberland	NE43 7LL	54.94714355	-1.897853494
47444	L84615	GP practice	UNKNOWN	Dr Alder TJ & Partner	Visible	FALSE	THE SURGERY	HIGH STREET	NEWNHAM-ON-SEVERN	GLOUCESTERSHIRE		GL14 1BE	51.80480576	-2.448578835
47445	F81667	GP practice	UNKNOWN	Dr R A Gardiner	Visible	FALSE								
47446	Y02569	GP practice	UNKNOWN	NHS Wirral PCAC	Visible	FALSE								
47447	H82625	GP practice	UNKNOWN	Old Shoreham Road Practice	Visible	FALSE								
47448	M85082	GP practice	UNKNOWN	Handsworth Medical Practice	Visible	FALSE	4 Trafalgar Road	Handsworth		Birmingham	West Midlands	B21 9NH	52.50501633	-1.940938354
47449	P91037	GP practice	UNKNOWN	ALLISTON MEDICAL CENTRE	Visible	FALSE								
47450	C81629	GP practice	UNKNOWN	Clarence Road Surgery	Visible	FALSE	63 - 65 Clarence Road			Derby	Derbyshire	DE23 6LR	52.9058075	-1.486354709
47451	F85046	GP practice	UNKNOWN	Hornsey Park Surgery	Visible	FALSE								
47452	N84003	GP practice	UNKNOWN	HIGH PASTURES SURGERY	Visible	FALSE								
47453	F84091	GP practice	UNKNOWN	The Surgery - Dr A Arshad	Visible	FALSE								
47454	F85011	GP practice	UNKNOWN	Bowes Medical Centre	Visible	FALSE								
47455	L84048	GP practice	UNKNOWN	Stoke Road Surgery	Visible	FALSE								
47456	B85041	GP practice	UNKNOWN	Mount Pleasant Medical Centre	Visible	FALSE	69 Purlwell Lane		Mount Pleasant	Batley	West Yorkshire	WF17 7PF	53.70703888	-1.637355089
47457	P84010	GP practice	UNKNOWN	Borchardt Medical Centre	Visible	FALSE								
47458	P88028	GP practice	UNKNOWN	Eastholme Surgery	Visible	FALSE	2 Heaton Moor Road	Heaton Chapel	Stockport	Cheshire		SK4 4NT	53.42708206	-2.177392721
47459	D82008	GP practice	UNKNOWN	St. Stephens Gate medcial Partnership	Visible	FALSE	55 Wessex Street	Norwich				NR2 2TJ	52.62398529	1.286777616
47460	F86680	GP practice	UNKNOWN	Ferndale Surgery	Visible	FALSE	Ferndale Surgery	76 Snakes Lane East	Woodford Green	Essex		IG8 9AW	51.60271454	0.026331997
47461	C88070	GP practice	UNKNOWN	Shiregreen Medical Centre	Visible	FALSE	492 Bellhouse Road	Shiregreen		Sheffield		S5 0RG	53.43005753	-1.440551877
47462	B87017	GP practice	UNKNOWN	The Almshouse Surgery	Visible	FALSE	Trinity Medical Centre	Thornhill Street	Wakefield	West Yorkshire		WF1 1PG	53.67996216	-1.494807482
47463	J82149	GP practice	UNKNOWN	Derby Road Surgery	Visible	FALSE	27-29 Derby Road	North End		Portsmouth		PO2 8HW	50.81583786	-1.082185388
47464	H82066	GP practice	UNKNOWN	Fitzalan Medical Group	Visible	FALSE	Fitzalan Road	Littlehampton	West Sussex			BN17 5JR	50.80654144	-0.537632465
47465	G82048	GP practice	UNKNOWN	Horsmans Place Partnership	Visible	FALSE	Horsmans Place Surgery	Instone Road	Dartford	Kent		DA1 2JP	51.44253159	0.214969486
47466	P85002	GP practice	UNKNOWN	Drs. Lewis										
47467	J82001	GP practice	UNKNOWN	Burgess Road Surgery	Visible	FALSE	357a Burgess Road			Southampton	Hampshire	SO16 3BD	50.93868256	-1.385792255
47468	D82066	GP practice	UNKNOWN	Paston Surgery	Visible	FALSE	Paston Surgery	9-11 Park Lane	North Walsham	Norfolk		NR28 0BQ	52.82001877	1.383287787
47469	G82087	GP practice	UNKNOWN	New Hayesbank Surgery	Visible	FALSE	Cemetery Lane	Kennington	Ashford		Kent	TN24 9JZ	51.15760422	0.878850102
47470	A84020	GP practice	UNKNOWN	Guide Post Medical Group	Visible	FALSE	North Parade	Choppington	Northumberland			NE62 5RA	55.15758896	-1.604078174
47471	E82079	GP practice	UNKNOWN	Cromwell Medical Centre	Visible	FALSE	11 - 11a Cromwell Avenue		Cheshunt	Herts		EN7 5DL	51.70195389	-5.01E-02
47472	M82006	GP practice	UNKNOWN	Riverside Medical Practice	Visible	FALSE	Roushill	SHREWSBURY		Shrewsbury	Shropshire	SY1 1PQ	52.70969391	-2.755214691
47473	B86057	GP practice	UNKNOWN	Windsor House Group Practice	Visible	FALSE	2 Corporation Street	Morley		LEEDS		LS27 9NB	53.74487686	-1.605582118
47474	P84611	GP practice	UNKNOWN	Drs Chiu										
47475	M81004	GP practice	UNKNOWN	Riverside Surgery	Visible	FALSE	Riverside Surgery	Waterside		Evesham	Worcestershire	WR11 1JP	52.08657837	-1.947896719
47476	F85077	GP practice	UNKNOWN	Grenoble Gardens Surgery	Visible	FALSE	1 Grenoble Gardens	Palmers Green	London			N13 6JE	51.6105957	-0.107478619
47477	K83012	GP practice	UNKNOWN	King Edward Road Surgery	Visible	FALSE	Christchurch Medical Centre	King Edward Road		Northampton		NN1 5LY	52.24276733	-0.866407931
47478	F84724	GP practice	UNKNOWN	Woodgrange Medical Practice	Visible	FALSE	40 Woodgrange Road	Forest Gate	London			E7 0QH	51.5485878	2.52E-02
47479	N83610	GP practice	UNKNOWN	Colby Medical Centre	Visible	FALSE	The Blue Bell Centre	Bluebell Lane	Huyton	Liverpool		L36 7XY	53.41954803	-2.842883348
47480	P88016	GP practice	UNKNOWN	Dr Rooney & Partners	Visible	FALSE	235 Bramhall Lane South	Bramhall	Stockport	Cheshire		SK7 3EP	53.37604141	-2.162314415
47481	K81006	GP practice	UNKNOWN	Sandhurst Group Practice	Visible	FALSE	72 Yorktown Road		Sandhurst	Berkshire		GU47 9BT	51.34529495	-0.798459113
47482	D83039	GP practice	UNKNOWN	Chesterfield Drive Practice	Visible	FALSE	The Surgery	29 Chesterfield Drive	Ipswich	Suffolk		IP1 6DW	52.0762291	1.132026076
47483	M91643	GP practice	UNKNOWN	Kingfisher Practice	Visible	FALSE	Bentley Medical Centre	Churchill Road	Bentley	Walsall	West Midlands	WS2 0BA	52.58919144	-2.024503946
47484	M85172	GP practice	UNKNOWN	Ridgacre House Surgery	Visible	FALSE	RIDGACRE HOUSE SURGERY	83 RIDGACRE ROAD						
47485	A82021	GP practice	UNKNOWN	Castlegate Surgery	Visible	FALSE	Cockermouth Health Centre	Isel Road	Cockermouth	Cumbria		CA13 9HT	54.66684723	-3.358566284
47486	P83006	GP practice	UNKNOWN	DrMackinnon										
47487	M85086	GP practice	UNKNOWN	Cofton Medical Centre	Visible	FALSE	2 Robinsfield Drive	West Heath		Birmingham	West Midlands	B31 4TU	52.39271164	-1.966671705
47488	B82059	GP practice	UNKNOWN	Dr Bannatyne and Partners	Visible	FALSE	The Surgery	54 Church Avenue		Harrogate	North Yorkshire	HG1 4HG	54.00602341	-1.535726309
47489	F81024	GP practice	UNKNOWN	Dickens Place	Visible	FALSE	Dickens Place  Surgery	Dickens Place	Chelmsford	Essex		CM1 4UU	51.75460815	0.44536829
47490	B82081	GP practice	UNKNOWN	Elvington Medical Practice	Visible	FALSE	York Road	Elvington	York	North Yorkshire		YO41 4DY	53.92498779	-0.948799729
47491	H82047	GP practice	UNKNOWN	BRIDGE MEDICAL CENTRE	Visible	FALSE	Wassand Close	Three Bridges	Crawley	West Sussex		RH10 1LL	51.11736298	-0.166424662
47492	C86626	GP practice	UNKNOWN	Park View Surgery	Visible	FALSE	Newton Medical Centre	Newton Lane	Sprotbrough	Doncaster	South Yorkshire	DN5 8DA	53.52157593	-1.161546707
47493	F84034	GP practice	UNKNOWN	St Stephen's Health Centre	Visible	FALSE	Bow Community Hall	William Place	Bow	London		E3 5ED	51.53221512	-3.09E-02
47494	A83047	GP practice	UNKNOWN	Denmark Street Surgery	Visible	FALSE	Denmark Street Surgery	Darlington	County Durham			DL3 0PD	54.53892517	-1.552235484
47495	H83027	GP practice	UNKNOWN	Dr B Baskaran & Partners	Visible	FALSE	Parkway Health Centre	Parkway	New Addington	Croydon	Surrey	CR0 0JA	51.34433746	-1.85E-02
47496	Y02572	GP practice	UNKNOWN	Locala-CIC	Visible	FALSE	Horne Street Health Centre	Hanson Lane 		Halifax	West Yorkshire	HX1 5UA	53.72566605	-1.871684909
47497	E87753	GP practice	UNKNOWN	Dr Victoria Muir's Practice	Visible	FALSE	Belgrave Medical Centre	13 Pimlico Rd	London	london		SW1W 8NA	51.49065018	-0.151343212
47498	K81059	GP practice	UNKNOWN	The Gainsborough Practice 	Visible	FALSE	1 County Lane	Warfield	Bracknell			RG42 3JP	51.42625427	-0.731351733
47499	A86038	GP practice	UNKNOWN	Newburn Surgery	Visible	FALSE	4 Newburn Road	Newburn	Newcastle upon Tyne			NE15 8LX	54.985672	-1.743583083
47500	C86034	GP practice	UNKNOWN	The New Surgery	Visible	FALSE	The New Surgery	Adwick Road	Mexborough	South Yorkshire		S64 8DR	53.4887352	-1.333708048
47501	E82021	GP practice	UNKNOWN	The Health Centre	Visible	FALSE	Ash Meadow		Much Hadham			SG10 6DE	51.84872818	7.08E-02
47502	B82101	GP practice	UNKNOWN	Sleights and Sandsend Medical Practice	Visible	FALSE	Iburndale Lane	Sleights		Whitby	North Yorkshire	YO22 5EL	54.45088196	-0.664308488
47503	G82014	GP practice	UNKNOWN	Woodlands Family Practice	Visible	FALSE	Woodlands Road	Gillingham	Kent			ME7 2BU	51.3784256	0.56664294
47504	P85007	GP practice	UNKNOWN	Dr N T Mistry & Dr F Shafique 	Visible	FALSE	1st Floor Integrated Care Centre	NHS Oldham	New Radcliffe Street	Oldham		OL1 1NL	53.54373932	-2.116854191
47505	G84629	GP practice	UNKNOWN	Sundridge Medical Practice	Visible	FALSE	84 London Lane	Bromley	Kent			BR1 4HE	51.41467667	1.48E-02
47506	J83004	GP practice	UNKNOWN	Whiteparish Surgery	Visible	FALSE	Common Road	Whiteparish	Wiltshire			SP5 2SU	51.00930405	-1.650735259
47507	Y02585	GP practice	UNKNOWN	The Orient Practice	Visible	FALSE	The Oliver Road Polyclinic	75 Oliver Road	Leyton	London		E10 5LG	51.55991364	-1.33E-02
47508	C88627	GP practice	UNKNOWN	University Health Service	Visible	FALSE	53 Gell Street			Sheffield	South Yorkshire	S3 7QP	53.38029861	-1.482619882
47509	L81632	GP practice	UNKNOWN	Emersons Green Medical Centre	Visible	FALSE	St Lukes Close	Emersons Green South	Bristol			BS16 7AL	51.492733	-2.476980209
47510	B83628	GP practice	UNKNOWN	Clarendon Medical Centre	Visible	FALSE	5 Alice Street		West Yorkshire	Bradford	West Yorkshire	BD8 7RT	53.80157471	-1.763456345
47511	J82132	GP practice	UNKNOWN	Testvale Surgery	Visible	FALSE	12 Salisbury Road	Totton	Hampshire			SO40 3PY	50.91942596	-1.489883423
47512	E85059	GP practice	UNKNOWN	Chestnut Practice	Visible	FALSE	Heart of Hounslow Centre for Health	92 Bath Road	Hounslow	Middlesex	Middlesex	TW3 3EL	51.46826553	-0.371740222
47513	K84033	GP practice	UNKNOWN	Church Street Practice	Visible	FALSE	Health Centre	Mably Way	Wantage	Oxon		OX12 9BN	51.59877396	-1.425847292
47514	A81034	GP practice	UNKNOWN	Thornaby & Barwick Medical Group	Visible	FALSE	Thornaby Medical Centre	Trenchard Avenue	Thornaby	Stockton-on-Tees		TS17 0EE	54.53807831	-1.292129636
47515	N81619	GP practice	UNKNOWN	Oaks Place Surgery	Visible	FALSE	Widnes HCRC	Oaks Place	Caldwell Road	Widnes	Cheshire	WA8 7GD	53.36219025	-2.735766411
47516	P85612	GP practice	UNKNOWN	Werneth Medical Practice	Visible	FALSE	76a Windsor Road	Oldham				OL8 4AL	53.53497314	-2.126923561
47517	C82100	GP practice	UNKNOWN	The Hedges Medical Centre	Visible	FALSE	Pasley Road	Eyres Monsell		Leicester		LE2 9BU	52.5915184	-1.146412134
47518	B83062	GP practice	UNKNOWN	Ashcroft Surgery	Visible	FALSE	Ashcroft Surgery	Newlands Way	Eccleshill	Bradford	West Yorkshire	BD10 0JE	53.82379913	-1.712456107
47519	L81642	GP practice	UNKNOWN	  Wellington Road Family Practice	Visible	FALSE	The Surgery	Wellington Road	Yate	Bristol		BS37 5UY	51.54891968	-2.417732239
47520	C84705	GP practice	UNKNOWN	Hickings Lane Medical Centre	Visible	FALSE	120 Ryecroft Street	Stapleford	Nottingham			NG9 8PN	52.93635941	-1.264537811
47521	M87002	GP practice	UNKNOWN	Norton Medical Practice	Visible	FALSE	9 Whittington Road	Norton	Stourbridge	West Midlands		DY8 3DB	52.44644928	-2.160841942
47522	B83044	GP practice	UNKNOWN	Dr Mills & Partners	Visible	FALSE	Highfield Health Centre	2 Procter Street	Tong Street	Bradford		BD4 9QA	53.7703743	-1.716644287
47523	C86019	GP practice	UNKNOWN	The Scott Practice	Visible	FALSE	Greenfield Lane	Balby	Doncaster			DN4 0TG	53.50704193	-1.151429534
47524	P88010	GP practice	UNKNOWN	Dr A Sen & Dr S Iqbal	Visible	FALSE	Heaton Norris H/Centre Cheviot Close H/Norris Stockport			Stockport		SK4 1JX	53.41654587	-2.167915344
47525	M85051	GP practice	UNKNOWN	FirstCare Practice 	Visible	FALSE	Balsall Heath Health Centre	Edward Road	Balsall Heath	Birmingham	West Midlands	B12 9LP	52.45736694	-1.887801528
47526	E82048	GP practice	UNKNOWN	Theobald Centre	Visible	FALSE	121 Theobald Street			Borehamwood	Herts	WD6 4PT	51.66126633	-0.285511196
47527	M85634	GP practice	UNKNOWN	Heathfield Family Centre	Visible	FALSE	133 Heathfield Road	Handsworth		Birmingham		B19 1HL	52.50634384	-1.910071135
47528	C82026	GP practice	UNKNOWN	Bridge Street Medical Practice	Visible	FALSE	20 Bridge Street	Loughborough	Leicestershire			LE11 1NQ	52.77474976	-1.207109094
47529	C84042	GP practice	UNKNOWN	Saxon Cross Surgery 	Visible	FALSE	Stapleford Care Centre	Church Street	Stapleford	Nottingham	Nottinghamshire	NG9 7DA	52.92387009	-1.281765938
47530	B82068	GP practice	UNKNOWN	Dr N J Wilson & Dr J F Matthews	Visible	FALSE	Helmsley Medical Centre	Carlton Road	Helmsley	York		YO62 5HD	54.24925995	-1.056371808
47531	B82019	GP practice	UNKNOWN	Topcliffe Surgery	Visible	FALSE	Topcliffe Surgery	Long Street		Topcliffe		YO7 3RP	54.17776489	-1.384826899
47532	M81009	GP practice	UNKNOWN	Golden Valley Practice	Visible	FALSE	The Surgery	Ewyas Harold	Hereford			HR2 0EU	51.9526825	-2.891822577
47533	F86010	GP practice	UNKNOWN	Fullwell Cross Medical Centre	Visible	FALSE	1 Tomswood Hill	Barkingside	Essex			IG6 2HG	51.59461975	8.38E-02
47534	K82027	GP practice	UNKNOWN	Purbeck Health Centre	Visible	FALSE	Purbeck	Stantonbury	Milton Keynes	Buckinghamshire		MK14 6BL	52.06198883	-0.774175644
47535	C88050	GP practice	UNKNOWN	Jaunty Springs Health Centre	Visible	FALSE	53 Jaunty Way	SHEFFIELD				S12 3DZ	53.34751511	-1.417793512
47536	C84005	GP practice	UNKNOWN	East Leake Medical Group	Visible	FALSE	The Health Centre	Gotham Road	East Leake	Leics		LE12 6JG	52.83405685	-1.177084088
47537	F81078	GP practice	UNKNOWN	Church Langley Medical Practice	Visible	FALSE	Church Langley Way			Harlow	Essex	CM17 9TG	51.76772308	0.132776514
47538	M82029	GP practice	UNKNOWN	Oakengates Medical Practice	Visible	FALSE	OAKENGATES MED PRATICE	27 LIMES WALK						
47539	P81088	GP practice	UNKNOWN	Whitworth Medical Centre	Visible	FALSE	Market Street	Whitworth	Nr Rochdale			OL12 8QS	53.66122437	-2.173942089
47540	N85051	GP practice	UNKNOWN	Sunlight Group Practice (Parkfield Medical Centre)	Visible	FALSE	Sefton Road			New Ferry	Merseyside	CH62 5HS	53.36312485	-3.000157118
47541	J81048	GP practice	UNKNOWN	Wessex Road Surgery	Visible	FALSE	Wessex Road	Parkstone		Poole	Dorset	BH14 8BQ	50.72290039	-1.951555133
47542	M84629	GP practice	UNKNOWN	St Wulfstan Surgery	Visible	FALSE	Northfield Road			Southam	Warwickshire	CV47 0FG	52.24844742	-1.398635864
47543	P81191	GP practice	UNKNOWN	Queensway 	Visible	FALSE	Queensway Medical Centre	Queensway		Poulton-Le-Fylde	Lancashire	FY6 7ST	53.84659195	-2.995399952
47544	E82057	GP practice	UNKNOWN	77 Ware Road Surgery	Visible	FALSE	77 Ware Road	Hertford	Herts	01992 414 500		SG13 7EE	51.7995491	-6.32E-02
47545	Y02664	GP practice	UNKNOWN	Skelton Medical Centre	Visible	FALSE	Bylands Road	Skelton				TS12 2NN	54.56065369	-0.970019519
47546	E81076	GP practice	UNKNOWN	Pastures Way Surgery	Visible	FALSE	Pastures Way			Luton	Bedfordshire	LU4 0PF	51.90002823	-0.485727876
47547	E82638	GP practice	UNKNOWN	Stanhope Surgery	Visible	FALSE	Stanhope Surgery	Stanhope Road	Waltham Cross	Hertfordshire		EN8 7DJ	51.68800354	-3.21E-02
47548	F81044	GP practice	UNKNOWN	Ardleigh Surgery	Visible	FALSE	The Surgery	Dedham Road	Ardleigh			CO7 7LD	51.92707062	0.985110879
47549	L82016	GP practice	UNKNOWN	Oak Tree Surgery	Visible	FALSE	Clemo Road			Liskeard	Cornwall	PL14 3XA	50.46073532	-4.451910496
47550	J83036	GP practice	UNKNOWN	Ashington House Surgery	Visible	FALSE	Ashington Way	Westlea	Swindon	Wiltshire		SN5 7XY	51.55747604	-1.826600552
47551	G82164	GP practice	UNKNOWN	THE VINE MEDICA CENTRE	Visible	FALSE	166 TONBRIDGE ROAD	MAIDSTONE	KENT			ME16 0EX	51.27721405	0.49883461
47552	E82115	GP practice	UNKNOWN	Dr.Sullivan & Partners	Visible	FALSE	Stockwell Lodge Medical Centre	Rosedale Way	Cheshunt	Waltham Cross	Hertfordshire	EN7 6HL	51.71379471	-5.60E-02
47553	H82089	GP practice	UNKNOWN	Riverside Surgery	Visible	FALSE	48 Worthing Road			Horsham	W Sussex	RH12 1UD	51.06103134	-0.335948706
47554	H83053	GP practice	UNKNOWN	Parchmore Medical Centre	Visible	FALSE	97 Parchmore Road	Thornton Heath		Croydon	Surrey	CR7 8LY	51.40148544	-0.100567408
47555	M81015	GP practice	UNKNOWN	Stanmore House Surgery	Visible	FALSE	Linden Avenue			Kidderminster	Worcestershire	DY10 3AA	52.3911171	-2.231438637
47556	L85053	GP practice	UNKNOWN	Grove House Surgery	Visible	FALSE	West Shepton	Shepton Mallet	Somerset			BA4 5UH	51.18759155	-2.557484627
47557	P91009	GP practice	UNKNOWN	Davyhulme Medical Centre	Visible	FALSE	130 Broadway	Davyhulme	Manchester	MANCHESTER	Lancashire	M41 7WJ	53.45948792	-2.366767168
47558	F82638	GP practice	UNKNOWN	Modern Medical Centre	Visible	FALSE	195 Rush Green Road	Romford	Essex			RM7 0PX	51.56541824	0.177620858
47559	J81003	GP practice	UNKNOWN	Alma Medical Centre	Visible	FALSE	31 Alma Road	Bournemouth	Dorset			BH9 1BP	50.73960876	-1.876343489
47560	M83092	GP practice	UNKNOWN	Crown Surgery	Visible	FALSE	23 High Street	Eccleshall	Stafford			ST21 6BW	52.85941696	-2.253500462
47561	P85601	GP practice	UNKNOWN	The Jalal Practice	Visible	FALSE	Integrated Care Centre	New Radcliffe Street		Oldham	Lancashire	OL1 1NL	53.54373932	-2.116854191
47562	C83043	GP practice	UNKNOWN	Market Rasen Surgery	Visible	FALSE	Mill Road	Market Rasen				LN8 3BP	53.38438797	-0.340819657
47563	F86026	GP practice	UNKNOWN	The Forest Surgery	Visible	FALSE	2 Macdonald Road	Walthamstow	London	London		E17 4BA	51.59472656	-5.02E-03
47564	C81642	GP practice	UNKNOWN	Park View Medical Centre	Visible	FALSE	Cranfleet Way	Long Eaton	Nottingham			NG10 3RJ	52.89268112	-1.293414354
47565	K83043	GP practice	UNKNOWN	Abington Medical Centre	Visible	FALSE	Abington Health Complex	51a Beech Avenue	Northampton	Northants		NN3 2JG	52.25326157	-0.865876734
47566	N83027	GP practice	UNKNOWN	Central Surgery	Visible	FALSE	Lowe House HCRC	103 Crab Street	St Helens	Merseyside		WA10 2DJ	53.45667648	-2.743287802
47567	H85025	GP practice	UNKNOWN	Wrythe Green Surgery	Visible	FALSE	Wrythe Green Surgery	Wrythe Lane	Carshalton			SM5 2RE	51.37176895	-0.171293482
47568	H83039	GP practice	UNKNOWN	Stovell House Surgery	Visible	FALSE	188 Lower Addiscombe Road			Croydon	Surrey	CR0 6AH	51.37887192	-7.54E-02
47569	H85637	GP practice	UNKNOWN	Dr Akbar	Visible	FALSE	120 Bedford Hill	Balham	London			SW12 9HS	51.44070816	-0.149087042
47570	F84677	GP practice	UNKNOWN	East End Medical Centre	Visible	FALSE	61 Plashet Road		London			E13 0QA	51.53735352	2.54E-02
47571	P84063	GP practice	UNKNOWN	Drs Chen & Davis	Visible	FALSE	Chorlton Health Centre	1 Nicolas Road	Chorlton-cum-Hardy	Manchester		M21 9NJ	53.44378662	-2.279973745
47572	M83034	GP practice	UNKNOWN	Ryecroft Surgery 	Visible	FALSE	Broad Street		Newcastle under Lyme	Staffordshire		ST5 2BQ	53.01414871	-2.22893405
47573	M85782	GP practice	UNKNOWN	University Southgate Practice	Visible	FALSE	11 Bournbrook Road	Selly Oak	Birmingham			B29 7BL	52.44658279	-1.927362561
47574	E81022	GP practice	UNKNOWN	Larksfield Surgery Medical Partnership	Visible	FALSE	Arlesey Road	Stotfold	Hitchin	Herts		SG5 4HB	52.01713181	-0.235098064
47575	M86016	GP practice	UNKNOWN	Stoney Stanton Medical Centre	Visible	FALSE	475 Stoney Stanton Medical Centre	Foleshill	Coventry	West Midlands		CV6 5EA	52.42353439	-1.494666338
47576	N84005	GP practice	UNKNOWN	Cumberland House Surgery	Visible	FALSE	58 Scarisbrick New Road	Southport	Merseyside			PR8 6PG	53.63874817	-2.990422964
47577	Y00155	GP practice	UNKNOWN	Grove Surgery	Visible	FALSE	200-202 Chadwell Heath Lane	Chadwell Heath		Romford	Essex	RM6 4YU	51.57647324	0.122554787
47578	N83025	GP practice	UNKNOWN	Cornerways Medical Centre	Visible	FALSE	North Huyton Primary Care Resource Centre	Woolfall Heath Avenue	Huyton	Liverpool	Merseyside	L36 3TN	53.42280579	-2.856235504
47579	H82063	GP practice	UNKNOWN	Moatfield Surgery: moatfield.surgery@nhs.net	Visible	FALSE	St Michaels Road	East Grinstead				RH19 3GW	51.13162231	-1.30E-02
47580	Y02509	GP practice	UNKNOWN	King Street Health Centre	Visible	FALSE	KING STREET HEALTH CENTRE	47 KING STREET		WAKEFIELD	West Yorkshire	WF1 2SN	53.68380356	-1.502377391
47581	M81022	GP practice	UNKNOWN	Haresfield Surgery	Visible	FALSE	Turnpike House	37						
47582	G81046	GP practice	UNKNOWN	Portslade Health Centre Medical Practice	Visible	FALSE	Church Road	Portslade	Brighton			BN41 1LX	50.8336792	-0.213238254
47583	G83067	GP practice	UNKNOWN	Valentine Health Partnership	Visible	FALSE	Ferryview Health Centre	25 John Wilson Street	Woolwich	London		SE18 6PZ	51.49229813	6.15E-02
47584	L81032	GP practice	UNKNOWN	The Wedmore Practice	Visible	FALSE	St Johns Lane Health Centre	St Johns Lane	Bedminster	Bristol		BS3 5AS	51.43625259	-2.588474512
47585	F81052	GP practice	UNKNOWN	St Osyth Surgery	Visible	FALSE	St James Surgery	89 Wash Lane	Clacton on Sea	Essex		CO15 1DA	51.78736115	1.147421002
47586	G81102	GP practice	UNKNOWN	Buxted Medical Centre	Visible	FALSE	Framfield Road	Buxted		Uckfield	Sussex	TN22 5FD	50.98939514	0.132108986
47587	J82206	GP practice	UNKNOWN	Monteagle Surgery	Visible	FALSE	Tesimond Drive			Yateley	Hampshire	GU46 6FE	51.33838272	-0.847967327
47588	H84030	GP practice	UNKNOWN	Central Surgery	Visible	FALSE	Surbiton Health Centre	Ewell Road		Surbiton		KT6 6EZ	51.39108276	-0.300099969
47589	L81130	GP practice	UNKNOWN	The Park Medical Practice	Visible	FALSE	Cadbury Heath Health Centre	Parkwall Road	Cadbury Heath	Bristol		BS30 8HS	51.44717789	-2.488750696
47590	B81058	GP practice	UNKNOWN	Sydenham Group Practice	Visible	FALSE	Sydenham Group Practice	Elliott Chappell Health Centre	215 Hessle Road	HULL	Yorkshire(East Riding)	HU3 4BB	53.73528671	-0.362038165
47591	F82031	GP practice	UNKNOWN	Drs Beheshti Sanomi & Olajide	Visible	FALSE	Drs Beheshti Sanomi & Olajide	RUSH GREEN MEDICAL CENTRE	261 DAGENHAM ROAD	ROMFORD	Essex	RM7 0XR	51.56072617	0.175982818
47592	G83015	GP practice	UNKNOWN	Eltham Palace Surgery	Visible	FALSE	28 Court Yard			Eltham		SE9 5QA	51.44938278	5.08E-02
47593	B86058	GP practice	UNKNOWN	Sunfield Medical Centre	Visible	FALSE	Sunfield Medical Centre	Sunfield Place	Stanningley	Pudsey	West Yorkshire	LS28 6DR	53.80641174	-1.668265581
47594	F83674	GP practice	UNKNOWN	The Tufnell Surgery (Dr Kateb)	Visible	FALSE	244 Tufnell Park Road				London	N19 5EW	51.5571785	-0.136558011
47595	M92629	GP practice	UNKNOWN	Fordhouses Medical Centre	Visible	FALSE	68 Marsh Lane	Fordhouses	Wolverhampton			WV10 6RU	52.62196732	-2.132134199
47596	M81008	GP practice	UNKNOWN	Spring Gardens Group Medical Practice	Visible	FALSE	Spring Gardens Group Medical Centre	Spring Gardens		Worcester	Worcestershire	WR1 2BS	52.19166946	-2.216356993
47597	L82004	GP practice	UNKNOWN	Wadebridge & Camel Estuary Practice	Visible	FALSE	WADEBRIDGE AND CAMEL	ESTUARY PRACTICE	BROOKLYN	WADEBRIDGE	Cornwall	PL27 7BS	50.51483154	-4.83575964
47598	B85636	GP practice	UNKNOWN	WESTBOURNE SURGERY	Visible	FALSE	11A ST JAMES ROAD	MARSH	HUDDERSFIELD			HD1 4QR	53.65097809	-1.806115508
47599	C82627	GP practice	UNKNOWN	SILVERDALE MEDICAL CENTRE	Visible	FALSE	6 SILVERDALE DRIVE	THURMASTON	LEICESTER	TELEPHONE :01163662020		LE4 8NN	52.67232895	-1.09053278
47600	E87754	GP practice	UNKNOWN	The Wellington Health Centre	Visible	FALSE	16 Wellington Road	London				NW8 9SP	51.53227615	-0.171270028
47601	C82045	GP practice	UNKNOWN	Whitwick Road Surgery	Visible	FALSE	Whitwick Road	Coalville	Leicestershire			LE67 3FA	52.7265625	-1.366643548
47602	E85116	GP practice	UNKNOWN	The Cuckoo Lane Practice	Visible	FALSE	14 Cuckoo Lane	Hanwell		London		W7 3EY	51.5151825	-0.338908404
47603	C86616	GP practice	UNKNOWN	Church View Surgery	Visible	FALSE	Denaby Springwell Centre	Church Road	Denaby	Doncaster	South Yorkshire	DN12 4AB	53.49062347	-1.245747685
47604	F86001	GP practice	UNKNOWN	The Firs	Visible	FALSE	26 Stephenson Road	Walthamstow		London		E17 7JT	51.58029556	-3.51E-02
47605	F84692	GP practice	UNKNOWN	The Hoxton Surgery	Visible	FALSE	12 Rushton Street	London				N1 5DR	51.53352737	-8.68E-02
47606	D81622	GP practice	UNKNOWN	Trinity Surgery	Visible	FALSE	29 St. Augustines Road	Wisbech	Cambs			PE13 3UZ	52.66585922	0.16409184
47607	F82010	GP practice	UNKNOWN	Petersfield Surgery	Visible	FALSE	70 Petersfield Avenue	Harold Hill	Romford	Essex		RM3 9PD	51.60571289	0.232796326
47608	N81042	GP practice	UNKNOWN	Manchester Road Medical Centre	Visible	FALSE	Manchester Road Medical Centre	27-31 Manchester Road	Knutsford	Cheshire		WA16 0LY	53.30604553	-2.377635479
47609	E86625	GP practice	UNKNOWN	Kincora Doctors Surgery	Visible	FALSE	134 Coldharbour Lane			Hayes	Middlesex	UB3 3HG	51.51166534	-0.412187248
47610	H82067	GP practice	UNKNOWN	Drs Wilson & Chishick	Visible	FALSE	Malcolm Road	Tangmere	Chichester	West Sussex		PO20 2HS	50.85104752	-0.718747854
47611	B86651	GP practice	UNKNOWN	Hilton Road Surgery	Visible	FALSE	67 Hilton Road	Chapeltown		Leeds	West Yorkshire	LS8 4HA	53.81965256	-1.520516872
47612	P92637	GP practice	UNKNOWN	Astley General Practice	Visible	FALSE	391a Manchester Road	Astley	Tyldesley	Manchester		M29 7BY	53.50039291	-2.458220959
47613	M92647	GP practice	UNKNOWN	Dr LAL	Visible	FALSE								
47615	M86039	GP practice	UNKNOWN	Dr WHEATLEY & partner	Visible	FALSE								
47616	F86087	GP practice	UNKNOWN	Dr Ak Shah & Partner - Goodmayes Medical Centre	Visible	FALSE								
47617	N81052	GP practice	UNKNOWN	Dr Fray D and Partners	Visible	FALSE								
47618	K84075	GP practice	UNKNOWN	Broadshires Health Centre	Visible	FALSE	Broadshires Way			Carterton	Oxfordshire	OX18 1JA	51.76504135	-1.586701512
47619	F84004	GP practice	UNKNOWN	Market Street Health Group	Visible	FALSE	Market Street Health Group	52 Market Street	East Ham	London		E6 2RA	51.53100204	5.75E-02
47620	E81059	GP practice	UNKNOWN	King's Road Surgery Sandy	Visible	FALSE	27b Kings Road			Sandy	Bedfordshire	SG19 1EJ	52.12872314	-0.289744228
47621	D82051	GP practice	UNKNOWN	St James Medical Practice	Visible	FALSE	County Court Rd 			King's Lynn	Norfolk	PE30 5SY	52.75200272	0.401444048
47622	P92653	GP practice	UNKNOWN	Shakespeare Surgery Ltd	Visible	FALSE	Chandler House 	Poolstock Lane 		Wigan		WN3 5HL	53.52939606	-2.643757105
47623	N84002	GP practice	UNKNOWN	Dr S S Sapre and Partners	Visible	FALSE								
47624	G82069	GP practice	UNKNOWN	Dr Jedrzejewski J A & Partners	Visible	FALSE								
47625	Y02720	GP practice	UNKNOWN	The Kingsway Practice	Visible	FALSE								
47626	G82104	GP practice	UNKNOWN	Dr Vibhuti R & Partner	Visible	FALSE								
47627	P85005	GP practice	UNKNOWN	LEESBROOK SURGERY	Visible	FALSE	MELLOR STREET	LEES		OLDHAM		OL4 3DG	53.53879547	-2.072645187
47628	N82053	GP practice	UNKNOWN	Aintree Park Group Practice	Visible	FALSE	Moss Lane	Aintree		Liverpool 	Merseyside	L9 8AL	53.46280289	-2.967282772
47629	D81045	GP practice	UNKNOWN	Buckden and Little Paxton Surgery	Visible	FALSE	40 High Street			Little Paxton	Cambridgeshire	PE19 6EY	52.25064087	-0.259187758
47630	Y00328	GP practice	UNKNOWN	Dr DAS & partner	Visible	FALSE								
47631	N81070	GP practice	UNKNOWN	Handforth Health Centre	Visible	FALSE	Wilmslow Road			Handforth	Cheshire	SK9 3HL	53.3478775	-2.214632034
47632	N82649	GP practice	UNKNOWN	Anfield Group Practice	Visible	FALSE	Anfield Group Practice	Townsend Lane Neighbourhood Health Centre	98 Townsend lane	Liverpool		L6 0BB	53.42953491	-2.945079803
47633	B85614	GP practice	UNKNOWN	Brook Street Surgery 	Visible	FALSE	8-10 Brook Street	Thornton Lodge 		Huddersfield	West Yorkshire	HD1 3JW	53.63830948	-1.798974395
47634	G83049	GP practice	UNKNOWN	Lyndhurst Medical Centre	Visible	FALSE	41 Lyndhurst Road	Barnehurst		Bexley		DA7 6DL	51.46125031	0.158780172
47635	F84089	GP practice	UNKNOWN	Dhariwal SK	Visible	FALSE								
47636	K83009	GP practice	UNKNOWN	Moulton Surgery	Visible	FALSE	120 Northampton Lane North	Moulton		Northampton		NN3 7QP		
47637	G82744	GP practice	UNKNOWN	Dr Ali I M	Visible	FALSE								
47638	A89015	GP practice	UNKNOWN	Fulwell Medical Centre	Visible	FALSE	Ebdon Lane	Fulwell		Sunderland	Tyne and Wear	SR6 8DZ	54.93063354	-1.383040667
47639	N81060	GP practice	UNKNOWN	Dr Awan M T S & Partners	Visible	FALSE								
47640	D81011	GP practice	UNKNOWN	Clarkson Surgery	Visible	FALSE								
47641	F81733	GP practice	UNKNOWN	Southbourne Surgery Limited	Visible	FALSE	314 Southbourne Grove			Westcliff-on-Sea	Essex	SS0 0AF	51.55521393	0.678325534
47642	M84070	GP practice	UNKNOWN	Warwick Gates Family Health Centre	Visible	FALSE								
47643	M85166	GP practice	UNKNOWN	Dr Ahmed F & Dr Ruby A	Visible	FALSE								
47644	E87055	GP practice	UNKNOWN	The Surgery	Visible	FALSE	32 Eardley Crescent			London		SW5 9JZ	51.48882675	-0.19537878
47645	Y02422	GP practice	UNKNOWN	Malling Health Wrekin	Visible	FALSE								
47646	B87602	GP practice	UNKNOWN	Dr G Aruna Prasad - Patience Lane Surgery	Visible	FALSE								
47647	E85663	GP practice	UNKNOWN	Dr Saluja										
47648	A84609	GP practice	UNKNOWN	Felton Surgery	Visible	FALSE	Middle Farm	51 Main Street	Felton	Morpeth	Northumberland	NE65 9PR	55.29853058	-1.711253762
47649	G82600	GP practice	UNKNOWN	Eastcourt Lane Surgery	Visible	FALSE								
47650	J84014	GP practice	UNKNOWN	Pyle Street Surgery	Visible	FALSE								
47651	P84051	GP practice	UNKNOWN	Eastlands Medical Practice	Visible	FALSE	Clayton Health Centre	89 North Road	Clayton	Manchester		M11 4EJ	53.48431015	-2.184141874
47652	L84084	GP practice	UNKNOWN	Dr Bell & Partners	Visible	FALSE								
47653	E87071	GP practice	UNKNOWN	Drs Boreham and Rowley	Visible	FALSE	Lower Ground Floor	18 Thurloe Street		London		SW7 2SU	51.49433899	-0.173249617
47654	B87025	GP practice	UNKNOWN	Dr S Jabeen And Partners - Castleford Medical Practice 	Visible	FALSE								
47655	P86012	GP practice	UNKNOWN	Woodside Medical Centre 	Visible	FALSE	247j Wood Street	Langley	Middleton	Manchester	Lancashire	M24 5QL	53.55633163	-2.213271618
47656	D83619	GP practice	UNKNOWN	Westwood Surgery	Visible	FALSE	45-47 Westwood Avenue			Lowestoft	Suffolk	NR33 9RW	52.46302414	1.717413664
47657	F81679	GP practice	UNKNOWN	Highwoods Surgery	Visible	FALSE								
47658	F81080	GP practice	UNKNOWN	Billericay Medical Practice	Visible	FALSE	Stock Road			Billericay	Essex	CM12 0BJ	51.63123703	0.422526628
47659	M84047	GP practice	UNKNOWN	Dr GREEN & partners	Visible	FALSE								
47660	A84048	GP practice	UNKNOWN	Station Medical Group	Visible	FALSE	Gatacre Street			Blyth	Northumberland	NE24 1HD	55.12875366	-1.514156818
47661	B82047	GP practice	UNKNOWN	Unity Health	Visible	FALSE	18 Wenlock Terrace	Fulford		York	North Yorkshire	YO10 4DU	53.94648743	-1.075193405
47662	F86086	GP practice	UNKNOWN	Dr Rp Dhital - Dr Dhital Practice	Visible	FALSE								
47663	Y02904	GP practice	UNKNOWN	Sefton South GP Practice	Visible	FALSE								
47664	L81063	GP practice	UNKNOWN	Kingswood Health Centre	Visible	FALSE								
47665	F85650	GP practice	UNKNOWN	Morecambe Surgery	Visible	FALSE	1 Morecambe Terrace			London		N18 1LA	51.61772156	-8.55E-02
47666	E83664	GP practice	UNKNOWN	The Hampdens Brunswick Park M/C	Visible	FALSE								
47667	C84678	GP practice	UNKNOWN	Sherwood Medical Partnership - Farnsfield Surgery	Visible	FALSE	The Surgery	Station Lane	Farnsfield	Newark		NG22 8LA	53.10541534	-1.036852479
47668	D82002	GP practice	UNKNOWN	Grove Surgery	Visible	FALSE	Grove Lane	 		Thetford	Norfolk	IP24 2HY	52.41543198	0.75149107
47669	M84051	GP practice	UNKNOWN	Old Mill Surgery	Visible	FALSE								
47670	G81640	GP practice	UNKNOWN	Roebuck House - Practice 5	Visible	FALSE								
47671	B85023	GP practice	UNKNOWN	The Almondbury Surgery	Visible	FALSE								
47672	F84111	GP practice	UNKNOWN	Abbey Road Medical Practice	Visible	FALSE								
47673	C81652	GP practice	UNKNOWN	Derwent Medical Centre	Visible	FALSE	26 North Street			Derby	Derbyshire	DE1 3AZ	52.92929077	-1.480721474
47674	H81021	GP practice	UNKNOWN	The Mill Medical Group	Visible	FALSE	Catteshall Mill	Catteshall Road		Godalming	Surrey	GU7 1JW	51.19078827	-0.5963552
47675	M83026	GP practice	UNKNOWN	Carlton Street Surgery	Visible	FALSE								
47676	A81610	GP practice	UNKNOWN	The Roseberry Practice	Visible	FALSE								
47677	C82068	GP practice	UNKNOWN	NORTHFIELD MEDICAL CENTRE	Visible	FALSE	VILLERS COURT	BLABY		LEICESTER	Leicestershire	LE8 4NS	52.57675171	-1.164362907
47678	Y02321	GP practice	UNKNOWN	IntraHealth Atherton	Visible	FALSE	Atherton Health Centre	Ormerod House	Nelson Street	Atherton	Lancashire	M46 0LE	53.52773666	-2.500980616
47679	J81633	GP practice	UNKNOWN	Woodlea House Practice	Visible	FALSE								
47680	N82079	GP practice	UNKNOWN	Greenbank Road Surgery	Visible	FALSE	1b Greenbank Road			Liverpool	Merseyside	L18 1HG	53.38765335	-2.924710035
47681	G85132	GP practice	UNKNOWN	Melbourne Grove Medical Practice	Visible	FALSE								
47682	F81670	GP practice	UNKNOWN	Epping Close Surgery	Visible	FALSE								
47683	G82696	GP practice	UNKNOWN	Dr Ford M R	Visible	FALSE	38 Manor Road			Deal	Kent	CT14 9BX	51.21493912	1.386304736
47684	P82030	GP practice	UNKNOWN	Dr Kumar	Visible	FALSE	279/283 ST.HELENS ROAD			BOLTON		BL3 3QB	53.56083679	-2.454873562
47685	F84706	GP practice	UNKNOWN	Dr Swedan And Partner	Visible	FALSE								
47686	C82062	GP practice	UNKNOWN	Dr N H R Simpson & Partners	Visible	FALSE	The Health Centre	27 High Street	Barrow-on-Soar	Loughborough	Leicestershire	LE12 8PY	52.75152588	-1.14912641
47687	D83004	GP practice	UNKNOWN	Felixstowe Road Medical Practice	Visible	FALSE								
47688	G83006	GP practice	UNKNOWN	The Albion Surgery	Visible	FALSE	6 Pincott Road			Bexleyheath	Kent	DA6 7LP	51.45404816	0.147428989
47689	L85044	GP practice	UNKNOWN	Queen Camel Medical Centre	Visible	FALSE								
47690	H85049	GP practice	UNKNOWN	Dr WILLIAMS	Visible	FALSE								
47691	C84629	GP practice	UNKNOWN	The Health Care Complex	Visible	FALSE								
47692	G81061	GP practice	UNKNOWN	Chapel Street Surgery	Visible	FALSE	Chapel Street			Newhaven	Sussex	BN9 9PW	50.7931633	5.13E-02
47693	P81152	GP practice	UNKNOWN	Dr A Robb	Visible	FALSE								
47694	C83030	GP practice	UNKNOWN	Billinghay Medical Practice	Visible	FALSE	39 High Street	Billinghay		Lincoln	Lincolnshire	LN4 4AU	53.07870102	-0.277920485
47695	P84034	GP practice	UNKNOWN	Barlow Medical Centre	Visible	FALSE								
47696	G83007	GP practice	UNKNOWN	Dr CHAR & partner	Visible	FALSE								
47697	J82646	GP practice	UNKNOWN	Park Lane Medical Centre	Visible	FALSE								
47698	C82676	GP practice	UNKNOWN	Dr JA Wood	Visible	FALSE								
47699	M83732	GP practice	UNKNOWN	Springhill Medical Centre	Visible	FALSE								
47700	G82096	GP practice	UNKNOWN	The Forge Surgery	Visible	FALSE	Fleet Health Campus	Vale Road	Northfleet	Gravesend	Kent	DA11 8BZ	51.43515015	0.343272477
47701	P81165	GP practice	UNKNOWN	Ightenhill Medical Centre	Visible	FALSE								
47702	F85065	GP practice	UNKNOWN	Stuart Crescent Health Centre	Visible	FALSE								
47703	G83025	GP practice	UNKNOWN	Welling Medical Practice	Visible	FALSE								
47704	D83008	GP practice	UNKNOWN	Burlington Primary Care	Visible	FALSE								
47705	H84053	GP practice	UNKNOWN	Berrylands Surgery	Visible	FALSE								
47706	K81086	GP practice	UNKNOWN	Dr K Sadhra & Partner	Visible	FALSE	MANOR PARK MEDICAL CENTRE	2 LERWICK DRIVE	OFF GRANVILLE AVENUE	SLOUGH	Berkshire	SL1 3XU	51.52453613	-0.600100458
47707	G82688	GP practice	UNKNOWN	Dr Setty M V S	Visible	FALSE								
47708	B85048	GP practice	UNKNOWN	71A Woodhouse Hill	Visible	FALSE								
47709	B81018	GP practice	UNKNOWN	Orchard 2000 Medical Centre	Visible	FALSE	480 Hall Road			Hull		HU6 9BS	53.78637314	-0.370006561
47710	L85066	GP practice	UNKNOWN	The Ilchester Surgery	Visible	FALSE								
47711	N82014	GP practice	UNKNOWN	Lance Lane Medical Centre	Visible	FALSE	19 Lance Lane	Wavertree		Liverpool	Merseyside	L15 6TS	53.39620209	-2.911901712
47712	F84083	GP practice	UNKNOWN	BETHNAL GREEN HEALTH CENTRE	Visible	FALSE								
47713	D83044	GP practice	UNKNOWN	Stowhealth	Visible	FALSE	Violet Hill House	Violet Hill Road		Stowmarket	Suffolk	IP14 1NL	52.19385529	0.990537941
47714	G85023	GP practice	UNKNOWN	Lewisham Medical Centre	Visible	FALSE								
47715	N84037	GP practice	UNKNOWN	LINCOLN HOUSE SURGERY	Visible	FALSE	33 Lincoln Road	Birkdale 		Southport	Merseyside	PR8 4PR	53.61883545	-3.012331486
47716	P92650	GP practice	UNKNOWN	Dr M Pal	Visible	FALSE								
47717	F81737	GP practice	UNKNOWN	Dr M J Hunt	Visible	FALSE								
47718	F84051	GP practice	UNKNOWN	STROUTS PLACE MEDICAL CENTRE	Visible	FALSE								
47719	L83118	GP practice	UNKNOWN	Chelston Hall Surgery	Visible	FALSE								
47720	M86019	GP practice	UNKNOWN	Dr KUKREJA & partners	Visible	FALSE	WESTWOOD MEDICAL H/CENTRE	298 TILE HILL LANE		COVENTRY		CV4 9DR	52.40432358	-1.560502172
47721	F83013	GP practice	UNKNOWN	Dr Woolf CM	Visible	FALSE								
47722	H82068	GP practice	UNKNOWN	Mill Stream Medical Centre	Visible	FALSE	North Street			Storrington	West Sussex	RH20 4DH	50.91828918	-0.454035729
47723	A86005	GP practice	UNKNOWN	Dr Morrison & Partners	Visible	FALSE								
47724	M83032	GP practice	UNKNOWN	The Aldergate Practice	Visible	FALSE								
47725	M85694	GP practice	UNKNOWN	Dr Chopra R	Visible	FALSE								
47726	P81734	GP practice	UNKNOWN	The Cornerstone Practice	Visible	FALSE	THE CORNERSTONE PRACTICE	SHADSWORTH SURGERY	SHADSWORTH ROAD	BLACKBURN		BB1 2HR	53.73918915	-2.4523561
47727	B81024	GP practice	UNKNOWN	Dr Moody M E A And Partners	Visible	FALSE								
47728	F84708	GP practice	UNKNOWN	Lwin T	Visible	FALSE								
47729	N81101	GP practice	UNKNOWN	Dr Holme C and Partners	Visible	FALSE								
47730	G82697	GP practice	UNKNOWN	The Churchill Clinic	Visible	FALSE								
47731	G82769	GP practice	UNKNOWN	Dr Rahman T A	Visible	FALSE								
47732	F81207	GP practice	UNKNOWN	Dr N M Siani	Visible	FALSE								
47733	H82076	GP practice	UNKNOWN	Cornerways Practice	Visible	FALSE								
47734	H85065	GP practice	UNKNOWN	A M Alissa	Visible	FALSE								
47735	A83626	GP practice	UNKNOWN	Dr Said	Visible	FALSE								
47736	Y02161	GP practice	UNKNOWN	Esdw Orthopaedic Cats	Visible	FALSE								
47737	F81729	GP practice	UNKNOWN	Matching Green Surgery	Visible	FALSE	49 Matching Green			Basildon	Essex	SS14 2PB	51.58285141	0.481272846
47738	P81169	GP practice	UNKNOWN	Fishergate Hill Surgery	Visible	FALSE								
47739	K84071	GP practice	UNKNOWN	Goring & Woodcote Medical Practice	Visible	FALSE	Red Cross Road			Goring on Thames	Oxfordshire	RG8 9HG	51.52245331	-1.133953691
47740	P81153	GP practice	UNKNOWN	Dr P J W Winfield & Partner	Visible	FALSE								
47741	H81058	GP practice	UNKNOWN	Woodlands Surgery	Visible	FALSE								
47742	G84037	GP practice	UNKNOWN	Dr MATTHEWS & partner	Visible	FALSE								
47743	G85027	GP practice	UNKNOWN	Burnt Ash Surgery	Visible	FALSE								
47744	L85021	GP practice	UNKNOWN	College Way Surgery	Visible	FALSE								
47745	C81070	GP practice	UNKNOWN	Dr Park & partners	Visible	FALSE								
47746	M81055	GP practice	UNKNOWN	Dr A W A Wijnberg	Visible	FALSE	Cornhill Surgery	65 New Road	Rubery	Birmingham		B45 9JT	52.39245605	-2.022968292
47747	L84070	GP practice	UNKNOWN	Dr Ndh Jones & Partners	Visible	FALSE	31 High Street			Stonehouse	Gloucestershire	GL10 2NG	51.74688721	-2.282836437
47748	K81644	GP practice	UNKNOWN	Dr Underwood Ta & Partners	Visible	FALSE	TILEHURST VILLAGE SURGERY	92 WESTWOOD RD						
47749	D81602	GP practice	UNKNOWN	Cottenham Medical Practice - Lewis House	Visible	FALSE	188 High Street	Cottenham		Cambridge	Cambridgeshire	CB24 8SE	52.28927231	0.124573
47750	P89613	GP practice	UNKNOWN	Waterloo Medical Centre	Visible	FALSE								
47751	F81110	GP practice	UNKNOWN	Tilbury Surgery	Visible	FALSE	London Road			Tilbury	Essex	RM18 8EB	51.46082687	0.366139203
47752	A87020	GP practice	UNKNOWN	Monkseaton Medical Centre	Visible	FALSE	Cauldwell Ave	Monkseaton		Whitley Bay	Tyne and Wear	NE25 9PH	55.03672409	-1.472852111
47753	P81079	GP practice	UNKNOWN	The Thornton Practice (Dr Naughton & Partners)	Visible	FALSE								
47754	G85035	GP practice	UNKNOWN	Morden Hill Surgery	Visible	FALSE								
47755	P85004	GP practice	UNKNOWN	Chadderton Medical Practice	Visible	FALSE	Chadderton Town Health Centre	Middleton Road	Chadderton	Oldham	Lancashire	OL9 0LH	53.54544449	-2.142031193
47756	A89030	GP practice	UNKNOWN	Dr Hubbard & Partners	Visible	FALSE	Kelso Grove	Shiney Row	Houghton le Spring	Tyne & Wear	Tyne and Wear	DH4 4RW	54.86684418	-1.495387077
47757	E85745	GP practice	UNKNOWN	Jubilee Gardens Medical Centre	Visible	FALSE	Jubilee Gardens 	 	 	Southall	Middlesex	UB1 2TJ	51.52132797	-0.369286209
47758	F84081	GP practice	UNKNOWN	SPITALFIELDS PRACTICE (THE)	Visible	FALSE								
47759	A86008	GP practice	UNKNOWN	The Park Medical Group	Visible	FALSE	Kingston Park Avenue	Kingston Park	Newcastle upon Tyne 	Tyne & Wear	Tyne and Wear	NE3 2HB	55.01286316	-1.668350697
47760	M85006	GP practice	UNKNOWN	Dr Lumley L C & Partners	Visible	FALSE								
47761	B83631	GP practice	UNKNOWN	One Medicare@Woodhead Road Surgery	Visible	FALSE	157 Woodhead Road	Great Horton		Bradford	West Yorkshire	BD7 2BL	53.78936005	-1.77600193
47762	E87065	GP practice	UNKNOWN	Notting Hill Medical Centre	Visible	FALSE								
47763	A83052	GP practice	UNKNOWN	Bishop's Close Medical Practice	Visible	FALSE	Health Centre	Bishop's Close		Spennymoor	Durham	DL16 6ED	54.69982147	-1.599111438
